[
    {
        "name": "南方科技大学",
        "lng": 114.005913,
        "lat": 22.603944
    },
    {
        "name": "厦门大学",
        "lng": 118.108573,
        "lat": 24.442324
    },
    {
        "name": "四川大学",
        "lng": 104.090633,
        "lat": 30.637031
    },
    {
        "name": "武汉大学",
        "lng": 114.37293,
        "lat": 30.543803
    },
    {
        "name": "中山大学",
        "lng": 113.304864,
        "lat": 23.102915
    },
    {
        "name": "清华大学",
        "lng": 116.333374,
        "lat": 40.009645
    },
    {
        "name": "北京大学",
        "lng": 116.316833,
        "lat": 39.998877
    },
    {
        "name": "中南大学",
        "lng": 112.934197,
        "lat": 28.1772
    },
    {
        "name": "南京大学",
        "lng": 118.786007,
        "lat": 32.06143
    },
    {
        "name": "西南大学",
        "lng": 106.430691,
        "lat": 29.826659
    },
    {
        "name": "电子科技大学",
        "lng": 103.937404,
        "lat": 30.756035
    },
    {
        "name": "重庆大学",
        "lng": 106.305243,
        "lat": 29.600533
    },
    {
        "name": "湖南大学",
        "lng": 112.950693,
        "lat": 28.186051
    },
    {
        "name": "山东大学",
        "lng": 117.066638,
        "lat": 36.681366
    },
    {
        "name": "浙江大学",
        "lng": 120.092406,
        "lat": 30.308304
    },
    {
        "name": "华中科技大学",
        "lng": 114.419825,
        "lat": 30.518659
    },
    {
        "name": "天津大学",
        "lng": 117.180115,
        "lat": 39.116464
    },
    {
        "name": "郑州大学",
        "lng": 113.542246,
        "lat": 34.823207
    },
    {
        "name": "华南理工大学",
        "lng": 113.351557,
        "lat": 23.161069
    },
    {
        "name": "青岛大学",
        "lng": 120.429451,
        "lat": 36.077594
    },
    {
        "name": "上海交通大学",
        "lng": 121.439446,
        "lat": 31.205568
    },
    {
        "name": "西南交通大学",
        "lng": 103.993214,
        "lat": 30.770399
    },
    {
        "name": "长安大学",
        "lng": 108.961188,
        "lat": 34.237006
    },
    {
        "name": "中国海洋大学",
        "lng": 120.343299,
        "lat": 36.06982
    },
    {
        "name": "北京邮电大学",
        "lng": 116.364594,
        "lat": 39.96725
    },
    {
        "name": "同济大学",
        "lng": 121.505829,
        "lat": 31.285099
    },
    {
        "name": "武汉理工大学",
        "lng": 114.357936,
        "lat": 30.526212
    },
    {
        "name": "海南大学",
        "lng": 110.33554,
        "lat": 20.06255
    },
    {
        "name": "苏州大学",
        "lng": 120.64718,
        "lat": 31.310695
    },
    {
        "name": "大连理工大学",
        "lng": 121.531261,
        "lat": 38.888106
    },
    {
        "name": "吉林大学",
        "lng": 125.285531,
        "lat": 43.828854
    },
    {
        "name": "深圳大学",
        "lng": 113.942651,
        "lat": 22.53945
    },
    {
        "name": "扬州大学",
        "lng": 119.406561,
        "lat": 32.348519
    },
    {
        "name": "南昌大学",
        "lng": 115.807698,
        "lat": 28.662684
    },
    {
        "name": "南华大学",
        "lng": 112.595221,
        "lat": 26.903847
    },
    {
        "name": "复旦大学",
        "lng": 121.510771,
        "lat": 31.301911
    },
    {
        "name": "暨南大学",
        "lng": 113.35451,
        "lat": 23.136831
    },
    {
        "name": "江南大学",
        "lng": 120.277757,
        "lat": 31.489746
    },
    {
        "name": "成都理工大学",
        "lng": 104.153661,
        "lat": 30.681403
    },
    {
        "name": "东南大学",
        "lng": 118.800284,
        "lat": 32.061148
    },
    {
        "name": "青岛理工大学",
        "lng": 120.21173,
        "lat": 35.979979
    },
    {
        "name": "河南大学",
        "lng": 113.819584,
        "lat": 34.827546
    },
    {
        "name": "东北大学",
        "lng": 123.424477,
        "lat": 41.770971
    },
    {
        "name": "中国人民大学",
        "lng": 116.319769,
        "lat": 39.976546
    },
    {
        "name": "烟台大学",
        "lng": 121.464862,
        "lat": 37.481883
    },
    {
        "name": "哈尔滨工程大学",
        "lng": 126.688328,
        "lat": 45.78251
    },
    {
        "name": "中南财经政法大学",
        "lng": 114.392191,
        "lat": 30.480725
    },
    {
        "name": "济南大学",
        "lng": 116.974575,
        "lat": 36.620238
    },
    {
        "name": "西安交通大学",
        "lng": 108.990166,
        "lat": 34.252359
    },
    {
        "name": "西北工业大学",
        "lng": 108.923507,
        "lat": 34.248345
    },
    {
        "name": "西安电子科技大学",
        "lng": 108.840053,
        "lat": 34.129522
    },
    {
        "name": "上海大学",
        "lng": 121.39903,
        "lat": 31.32144
    },
    {
        "name": "南开大学",
        "lng": 117.17546,
        "lat": 39.109442
    },
    {
        "name": "河南科技大学",
        "lng": 112.428209,
        "lat": 34.60819
    },
    {
        "name": "华中师范大学",
        "lng": 114.367216,
        "lat": 30.524004
    },
    {
        "name": "北京师范大学",
        "lng": 116.372141,
        "lat": 39.967345
    },
    {
        "name": "山东科技大学",
        "lng": 120.12927,
        "lat": 36.009138
    },
    {
        "name": "兰州大学",
        "lng": 103.866202,
        "lat": 36.052393
    },
    {
        "name": "中国民航大学",
        "lng": 117.360129,
        "lat": 39.11428
    },
    {
        "name": "上海财经大学",
        "lng": 121.507251,
        "lat": 31.311875
    },
    {
        "name": "广州大学",
        "lng": 113.37871,
        "lat": 23.047155
    },
    {
        "name": "重庆工商大学",
        "lng": 106.585459,
        "lat": 29.509589
    },
    {
        "name": "哈尔滨工业大学",
        "lng": 126.639003,
        "lat": 45.749057
    },
    {
        "name": "北京理工大学",
        "lng": 116.322726,
        "lat": 39.966659
    },
    {
        "name": "天津理工大学",
        "lng": 117.148097,
        "lat": 39.066305
    },
    {
        "name": "西南财经大学",
        "lng": 103.827675,
        "lat": 30.687832
    },
    {
        "name": "大连海事大学",
        "lng": 121.538675,
        "lat": 38.877234
    },
    {
        "name": "南京航空航天大学",
        "lng": 118.826737,
        "lat": 32.041196
    },
    {
        "name": "重庆医科大学",
        "lng": 106.514522,
        "lat": 29.538879
    },
    {
        "name": "合肥工业大学",
        "lng": 117.302909,
        "lat": 31.849406
    },
    {
        "name": "华东师范大学",
        "lng": 121.460011,
        "lat": 31.036778
    },
    {
        "name": "四川师范大学",
        "lng": 104.129339,
        "lat": 30.615519
    },
    {
        "name": "上海中医药大学",
        "lng": 121.603152,
        "lat": 31.199818
    },
    {
        "name": "华东理工大学",
        "lng": 121.430226,
        "lat": 31.149538
    },
    {
        "name": "云南大学",
        "lng": 102.708574,
        "lat": 25.060198
    },
    {
        "name": "西南政法大学",
        "lng": 106.599891,
        "lat": 29.670014
    },
    {
        "name": "河南理工大学",
        "lng": 113.274063,
        "lat": 35.193959
    },
    {
        "name": "西北大学",
        "lng": 108.933657,
        "lat": 34.254326
    },
    {
        "name": "河南师范大学",
        "lng": 113.922073,
        "lat": 35.333536
    },
    {
        "name": "山东理工大学",
        "lng": 118.008295,
        "lat": 36.815484
    },
    {
        "name": "集美大学",
        "lng": 118.101029,
        "lat": 24.58848
    },
    {
        "name": "西北农林科技大学",
        "lng": 108.079342,
        "lat": 34.291642
    },
    {
        "name": "上海理工大学",
        "lng": 121.561335,
        "lat": 31.299252
    },
    {
        "name": "重庆理工大学",
        "lng": 106.53679,
        "lat": 29.460046
    },
    {
        "name": "河南财经政法大学",
        "lng": 113.825366,
        "lat": 34.785329
    },
    {
        "name": "东华大学",
        "lng": 121.221942,
        "lat": 31.060823
    },
    {
        "name": "河南工业大学",
        "lng": 113.557112,
        "lat": 34.836205
    },
    {
        "name": "青岛科技大学",
        "lng": 120.487295,
        "lat": 36.126442
    },
    {
        "name": "对外经济贸易大学",
        "lng": 116.434341,
        "lat": 39.986491
    },
    {
        "name": "重庆邮电大学",
        "lng": 106.614391,
        "lat": 29.537571
    },
    {
        "name": "北京航空航天大学",
        "lng": 116.353792,
        "lat": 39.98766
    },
    {
        "name": "安徽大学",
        "lng": 117.191797,
        "lat": 31.771578
    },
    {
        "name": "山东财经大学",
        "lng": 117.079771,
        "lat": 36.650838
    },
    {
        "name": "上海师范大学",
        "lng": 121.42531,
        "lat": 31.167918
    },
    {
        "name": "天津科技大学",
        "lng": 117.715812,
        "lat": 39.093244
    },
    {
        "name": "太原理工大学",
        "lng": 112.528501,
        "lat": 37.866621
    },
    {
        "name": "昆明理工大学",
        "lng": 102.863344,
        "lat": 24.856098
    },
    {
        "name": "河南农业大学",
        "lng": 113.669352,
        "lat": 34.792213
    },
    {
        "name": "华北水利水电大学",
        "lng": 113.799679,
        "lat": 34.787209
    },
    {
        "name": "山东师范大学",
        "lng": 117.048375,
        "lat": 36.657743
    },
    {
        "name": "中国石油大学（华东）",
        "lng": 120.18217,
        "lat": 35.947633
    },
    {
        "name": "天津师范大学",
        "lng": 117.132025,
        "lat": 39.069342
    },
    {
        "name": "长沙理工大学",
        "lng": 112.983119,
        "lat": 28.1582
    },
    {
        "name": "三亚学院",
        "lng": 109.563237,
        "lat": 18.331341
    },
    {
        "name": "陕西师范大学",
        "lng": 108.958925,
        "lat": 34.21098
    },
    {
        "name": "河海大学",
        "lng": 118.792299,
        "lat": 31.920646
    },
    {
        "name": "西华大学",
        "lng": 103.962133,
        "lat": 30.782454
    },
    {
        "name": "河南中医药大学",
        "lng": 113.812081,
        "lat": 34.786416
    },
    {
        "name": "中央财经大学",
        "lng": 116.349163,
        "lat": 39.965211
    },
    {
        "name": "湘潭大学",
        "lng": 112.870634,
        "lat": 27.887929
    },
    {
        "name": "北京工业大学",
        "lng": 116.488157,
        "lat": 39.881251
    },
    {
        "name": "广东工业大学",
        "lng": 113.399597,
        "lat": 23.045705
    },
    {
        "name": "郑州轻工业大学",
        "lng": 113.51616,
        "lat": 34.81715
    },
    {
        "name": "南京师范大学",
        "lng": 118.916683,
        "lat": 32.112189
    },
    {
        "name": "信阳师范学院",
        "lng": 114.045409,
        "lat": 32.144086
    },
    {
        "name": "长江大学",
        "lng": 112.221609,
        "lat": 30.339948
    },
    {
        "name": "南京理工大学",
        "lng": 118.863418,
        "lat": 32.03162
    },
    {
        "name": "重庆交通大学",
        "lng": 106.577412,
        "lat": 29.49464
    },
    {
        "name": "广西大学",
        "lng": 108.298379,
        "lat": 22.849027
    },
    {
        "name": "西南科技大学",
        "lng": 104.734782,
        "lat": 31.487222
    },
    {
        "name": "天津工业大学",
        "lng": 117.117765,
        "lat": 39.073258
    },
    {
        "name": "中国传媒大学",
        "lng": 116.563871,
        "lat": 39.918036
    },
    {
        "name": "鲁东大学",
        "lng": 121.365431,
        "lat": 37.529024
    },
    {
        "name": "华北理工大学",
        "lng": 118.59931,
        "lat": 39.21084
    },
    {
        "name": "重庆师范大学",
        "lng": 106.307308,
        "lat": 29.618613
    },
    {
        "name": "南京财经大学",
        "lng": 118.928683,
        "lat": 32.115144
    },
    {
        "name": "浙江工业大学",
        "lng": 120.047668,
        "lat": 30.234097
    },
    {
        "name": "大连交通大学",
        "lng": 121.577305,
        "lat": 38.91748
    },
    {
        "name": "新乡医学院",
        "lng": 113.939491,
        "lat": 35.294774
    },
    {
        "name": "河北工业大学",
        "lng": 117.065012,
        "lat": 39.244095
    },
    {
        "name": "天津财经大学",
        "lng": 117.284786,
        "lat": 39.067009
    },
    {
        "name": "山东农业大学",
        "lng": 117.12296,
        "lat": 36.200713
    },
    {
        "name": "西南石油大学",
        "lng": 104.190908,
        "lat": 30.832711
    },
    {
        "name": "山东建筑大学",
        "lng": 117.192366,
        "lat": 36.686465
    },
    {
        "name": "曲阜师范大学",
        "lng": 116.973508,
        "lat": 35.601187
    },
    {
        "name": "福建师范大学",
        "lng": 119.217467,
        "lat": 26.031685
    },
    {
        "name": "河北大学",
        "lng": 115.52262,
        "lat": 38.876199
    },
    {
        "name": "西安理工大学",
        "lng": 108.999753,
        "lat": 34.2596
    },
    {
        "name": "东北师范大学",
        "lng": 125.332221,
        "lat": 43.867341
    },
    {
        "name": "辽宁大学",
        "lng": 123.412947,
        "lat": 41.838983
    },
    {
        "name": "石河子大学",
        "lng": 86.064688,
        "lat": 44.309995
    },
    {
        "name": "福州大学",
        "lng": 119.203482,
        "lat": 26.062197
    },
    {
        "name": "杭州电子科技大学",
        "lng": 120.349512,
        "lat": 30.320546
    },
    {
        "name": "华南师范大学",
        "lng": 113.35785,
        "lat": 23.144541
    },
    {
        "name": "天津商业大学",
        "lng": 117.131361,
        "lat": 39.187459
    },
    {
        "name": "武汉科技大学",
        "lng": 114.274447,
        "lat": 30.444975
    },
    {
        "name": "东北财经大学",
        "lng": 121.557927,
        "lat": 38.884545
    },
    {
        "name": "海南热带海洋学院",
        "lng": 109.540805,
        "lat": 18.316374
    },
    {
        "name": "西安科技大学",
        "lng": 108.966654,
        "lat": 34.229439
    },
    {
        "name": "齐鲁工业大学",
        "lng": 116.817806,
        "lat": 36.564485
    },
    {
        "name": "中国地质大学（武汉）",
        "lng": 114.408655,
        "lat": 30.525749
    },
    {
        "name": "华东交通大学",
        "lng": 115.877477,
        "lat": 28.742922
    },
    {
        "name": "北京交通大学",
        "lng": 116.34974,
        "lat": 39.957902
    },
    {
        "name": "大连大学",
        "lng": 121.826772,
        "lat": 39.106662
    },
    {
        "name": "中原工学院",
        "lng": 113.621725,
        "lat": 34.755121
    },
    {
        "name": "华南农业大学",
        "lng": 113.361285,
        "lat": 23.164035
    },
    {
        "name": "中国农业大学",
        "lng": 116.364154,
        "lat": 40.010185
    },
    {
        "name": "临沂大学",
        "lng": 118.298597,
        "lat": 35.123361
    },
    {
        "name": "东北电力大学",
        "lng": 126.509725,
        "lat": 43.829381
    },
    {
        "name": "西南民族大学",
        "lng": 104.055946,
        "lat": 30.645411
    },
    {
        "name": "湖南师范大学",
        "lng": 112.95596,
        "lat": 28.193113
    },
    {
        "name": "华北电力大学",
        "lng": 116.31637,
        "lat": 40.095687
    },
    {
        "name": "聊城大学",
        "lng": 116.017982,
        "lat": 36.437177
    },
    {
        "name": "成都信息工程大学",
        "lng": 103.995255,
        "lat": 30.588652
    },
    {
        "name": "武汉工程大学",
        "lng": 114.439425,
        "lat": 30.466571
    },
    {
        "name": "青岛农业大学",
        "lng": 120.404108,
        "lat": 36.327029
    },
    {
        "name": "厦门理工学院",
        "lng": 118.093221,
        "lat": 24.630356
    },
    {
        "name": "南京工业大学",
        "lng": 118.647258,
        "lat": 32.088423
    },
    {
        "name": "哈尔滨师范大学",
        "lng": 126.566175,
        "lat": 45.872345
    },
    {
        "name": "天津医科大学",
        "lng": 117.191328,
        "lat": 39.112727
    },
    {
        "name": "上海海事大学",
        "lng": 121.911858,
        "lat": 30.88028
    },
    {
        "name": "南通大学",
        "lng": 120.918476,
        "lat": 31.978961
    },
    {
        "name": "哈尔滨理工大学",
        "lng": 126.623017,
        "lat": 45.721271
    },
    {
        "name": "南昌航空大学",
        "lng": 115.835044,
        "lat": 28.656991
    },
    {
        "name": "湖南科技大学",
        "lng": 112.925998,
        "lat": 27.910548
    },
    {
        "name": "上海立信会计金融学院",
        "lng": 121.661369,
        "lat": 31.284262
    },
    {
        "name": "延边大学",
        "lng": 129.494852,
        "lat": 42.918231
    },
    {
        "name": "郑州航空工业管理学院",
        "lng": 113.793729,
        "lat": 34.794567
    },
    {
        "name": "首都师范大学",
        "lng": 116.312068,
        "lat": 39.936212
    },
    {
        "name": "南京审计大学",
        "lng": 118.614913,
        "lat": 32.068569
    },
    {
        "name": "中北大学",
        "lng": 112.453582,
        "lat": 38.02132
    },
    {
        "name": "江西财经大学",
        "lng": 115.860912,
        "lat": 28.746778
    },
    {
        "name": "贵州大学",
        "lng": 106.66594,
        "lat": 26.452025
    },
    {
        "name": "四川农业大学",
        "lng": 103.001316,
        "lat": 29.983877
    },
    {
        "name": "北京科技大学",
        "lng": 116.365942,
        "lat": 39.996165
    },
    {
        "name": "湖北工业大学",
        "lng": 114.31531,
        "lat": 30.48646
    },
    {
        "name": "中国政法大学",
        "lng": 116.357865,
        "lat": 39.971079
    },
    {
        "name": "中国药科大学",
        "lng": 118.92049,
        "lat": 31.904083
    },
    {
        "name": "中国矿业大学",
        "lng": 117.151767,
        "lat": 34.221332
    },
    {
        "name": "南阳师范学院",
        "lng": 112.49451,
        "lat": 32.981678
    },
    {
        "name": "江西理工大学",
        "lng": 114.936671,
        "lat": 25.859943
    },
    {
        "name": "华东政法大学",
        "lng": 121.20261,
        "lat": 31.061249
    },
    {
        "name": "三峡大学",
        "lng": 111.322117,
        "lat": 30.72842
    },
    {
        "name": "北京联合大学",
        "lng": 116.433682,
        "lat": 39.996699
    },
    {
        "name": "广东财经大学",
        "lng": 113.360872,
        "lat": 23.096688
    },
    {
        "name": "宁波大学",
        "lng": 121.641548,
        "lat": 29.91732
    },
    {
        "name": "安徽财经大学",
        "lng": 117.431272,
        "lat": 32.911437
    },
    {
        "name": "山东交通学院",
        "lng": 116.799642,
        "lat": 36.543993
    },
    {
        "name": "桂林电子科技大学",
        "lng": 110.344571,
        "lat": 25.289893
    },
    {
        "name": "苏州科技大学",
        "lng": 120.57981,
        "lat": 31.254753
    },
    {
        "name": "西安建筑科技大学",
        "lng": 108.973163,
        "lat": 34.243736
    },
    {
        "name": "西安外国语大学",
        "lng": 108.882621,
        "lat": 34.141489
    },
    {
        "name": "北京外国语大学",
        "lng": 116.319536,
        "lat": 39.961489
    },
    {
        "name": "江西师范大学",
        "lng": 116.037792,
        "lat": 28.686226
    },
    {
        "name": "南京邮电大学",
        "lng": 118.937284,
        "lat": 32.119823
    },
    {
        "name": "中南民族大学",
        "lng": 114.399395,
        "lat": 30.491874
    },
    {
        "name": "重庆文理学院",
        "lng": 105.944504,
        "lat": 29.357066
    },
    {
        "name": "西安工业大学",
        "lng": 108.992378,
        "lat": 34.385755
    },
    {
        "name": "桂林理工大学",
        "lng": 110.305777,
        "lat": 25.069448
    },
    {
        "name": "成都大学",
        "lng": 104.196613,
        "lat": 30.656051
    },
    {
        "name": "华北科技学院",
        "lng": 116.810463,
        "lat": 39.962737
    },
    {
        "name": "河北科技大学",
        "lng": 114.528652,
        "lat": 37.984026
    },
    {
        "name": "湖南工业大学",
        "lng": 113.114149,
        "lat": 27.823866
    },
    {
        "name": "燕山大学",
        "lng": 119.546011,
        "lat": 39.913048
    },
    {
        "name": "黑龙江大学",
        "lng": 126.628135,
        "lat": 45.7144
    },
    {
        "name": "北京中医药大学",
        "lng": 116.434476,
        "lat": 39.977288
    },
    {
        "name": "河北工程大学",
        "lng": 114.611061,
        "lat": 36.662263
    },
    {
        "name": "安徽工业大学",
        "lng": 118.520697,
        "lat": 31.697702
    },
    {
        "name": "洛阳师范学院",
        "lng": 112.613118,
        "lat": 34.635089
    },
    {
        "name": "南京工程学院",
        "lng": 118.887844,
        "lat": 31.928509
    },
    {
        "name": "广东外语外贸大学",
        "lng": 113.298378,
        "lat": 23.20661
    },
    {
        "name": "上海工程技术大学",
        "lng": 121.21267,
        "lat": 31.061653
    },
    {
        "name": "安徽理工大学",
        "lng": 117.02624,
        "lat": 32.55808
    },
    {
        "name": "西安石油大学",
        "lng": 108.934412,
        "lat": 34.219408
    },
    {
        "name": "哈尔滨医科大学",
        "lng": 126.6264,
        "lat": 45.707524
    },
    {
        "name": "华侨大学",
        "lng": 118.650844,
        "lat": 24.940979
    },
    {
        "name": "成都锦城学院",
        "lng": 103.956421,
        "lat": 30.731225
    },
    {
        "name": "西安工程大学",
        "lng": 109.006408,
        "lat": 34.263925
    },
    {
        "name": "浙江师范大学",
        "lng": 119.649097,
        "lat": 29.1406
    },
    {
        "name": "西安财经大学",
        "lng": 108.941603,
        "lat": 34.120783
    },
    {
        "name": "广东海洋大学",
        "lng": 110.307239,
        "lat": 21.157362
    },
    {
        "name": "江汉大学",
        "lng": 114.166697,
        "lat": 30.520853
    },
    {
        "name": "山东工商学院",
        "lng": 121.453463,
        "lat": 37.491886
    },
    {
        "name": "云南财经大学",
        "lng": 102.725049,
        "lat": 25.086668
    },
    {
        "name": "东华理工大学",
        "lng": 115.832777,
        "lat": 28.724024
    },
    {
        "name": "安阳师范学院",
        "lng": 114.379048,
        "lat": 36.065262
    },
    {
        "name": "上海海洋大学",
        "lng": 121.903312,
        "lat": 30.889079
    },
    {
        "name": "山西大学",
        "lng": 112.593756,
        "lat": 37.805857
    },
    {
        "name": "西安邮电大学",
        "lng": 108.909777,
        "lat": 34.158992
    },
    {
        "name": "中国医科大学",
        "lng": 123.489738,
        "lat": 41.962089
    },
    {
        "name": "中国计量大学",
        "lng": 120.369036,
        "lat": 30.327401
    },
    {
        "name": "沈阳工业大学",
        "lng": 123.255554,
        "lat": 41.742385
    },
    {
        "name": "浙江理工大学",
        "lng": 120.359631,
        "lat": 30.31952
    },
    {
        "name": "河南科技学院",
        "lng": 113.945234,
        "lat": 35.286109
    },
    {
        "name": "江苏大学",
        "lng": 119.520631,
        "lat": 32.206296
    },
    {
        "name": "浙江工商大学",
        "lng": 120.395661,
        "lat": 30.314678
    },
    {
        "name": "首都经济贸易大学",
        "lng": 116.324696,
        "lat": 39.845583
    },
    {
        "name": "四川轻化工大学",
        "lng": 104.771921,
        "lat": 29.338503
    },
    {
        "name": "山西财经大学",
        "lng": 112.560945,
        "lat": 37.846621
    },
    {
        "name": "沈阳理工大学",
        "lng": 123.500795,
        "lat": 41.733289
    },
    {
        "name": "成都中医药大学",
        "lng": 103.81401,
        "lat": 30.692594
    },
    {
        "name": "海南师范大学",
        "lng": 110.350948,
        "lat": 20.002057
    },
    {
        "name": "南方医科大学",
        "lng": 113.341254,
        "lat": 23.193292
    },
    {
        "name": "四川外国语大学",
        "lng": 106.442919,
        "lat": 29.576542
    },
    {
        "name": "北华大学",
        "lng": 126.61234,
        "lat": 43.843166
    },
    {
        "name": "石家庄铁道大学",
        "lng": 114.515029,
        "lat": 38.089425
    },
    {
        "name": "中央民族大学",
        "lng": 116.327126,
        "lat": 39.956624
    },
    {
        "name": "华中农业大学",
        "lng": 114.363708,
        "lat": 30.48178
    },
    {
        "name": "广西师范大学",
        "lng": 110.295168,
        "lat": 25.100099
    },
    {
        "name": "首都医科大学",
        "lng": 116.359737,
        "lat": 39.870847
    },
    {
        "name": "中国科学技术大学",
        "lng": 117.276137,
        "lat": 31.842919
    },
    {
        "name": "上海应用技术大学",
        "lng": 121.517148,
        "lat": 30.848402
    },
    {
        "name": "南京农业大学",
        "lng": 118.849755,
        "lat": 32.038896
    },
    {
        "name": "赣南医学院",
        "lng": 114.90875,
        "lat": 25.780637
    },
    {
        "name": "中国人民解放军国防科技大学",
        "lng": 113.059631,
        "lat": 28.263331
    },
    {
        "name": "南阳理工学院",
        "lng": 112.559488,
        "lat": 32.973367
    },
    {
        "name": "长春工业大学",
        "lng": 125.296514,
        "lat": 43.860265
    },
    {
        "name": "上海对外经贸大学",
        "lng": 121.223889,
        "lat": 31.052547
    },
    {
        "name": "河北经贸大学",
        "lng": 114.499536,
        "lat": 38.141249
    },
    {
        "name": "洛阳理工学院",
        "lng": 112.426314,
        "lat": 34.61942
    },
    {
        "name": "湖北大学",
        "lng": 114.340713,
        "lat": 30.58292
    },
    {
        "name": "山西医科大学",
        "lng": 112.56077,
        "lat": 37.856398
    },
    {
        "name": "西华师范大学",
        "lng": 106.073086,
        "lat": 30.823736
    },
    {
        "name": "河北医科大学",
        "lng": 114.541759,
        "lat": 38.05175
    },
    {
        "name": "上海电力大学",
        "lng": 121.898093,
        "lat": 30.90808
    },
    {
        "name": "上海外国语大学",
        "lng": 121.489282,
        "lat": 31.282207
    },
    {
        "name": "中国人民公安大学",
        "lng": 116.343705,
        "lat": 39.906724
    },
    {
        "name": "内蒙古大学",
        "lng": 111.692416,
        "lat": 40.764629
    },
    {
        "name": "安徽师范大学",
        "lng": 118.385422,
        "lat": 31.288817
    },
    {
        "name": "重庆科技学院",
        "lng": 106.330207,
        "lat": 29.596567
    },
    {
        "name": "西南医科大学",
        "lng": 105.451069,
        "lat": 28.890489
    },
    {
        "name": "大连海洋大学",
        "lng": 121.561301,
        "lat": 38.874923
    },
    {
        "name": "青岛港湾职业技术学院",
        "lng": 120.029259,
        "lat": 35.817165
    },
    {
        "name": "南京信息工程大学",
        "lng": 118.721777,
        "lat": 32.209229
    },
    {
        "name": "兰州交通大学",
        "lng": 103.731761,
        "lat": 36.111419
    },
    {
        "name": "中南林业科技大学",
        "lng": 113.001233,
        "lat": 28.137636
    },
    {
        "name": "山东中医药大学",
        "lng": 116.807872,
        "lat": 36.565775
    },
    {
        "name": "东北林业大学",
        "lng": 126.642516,
        "lat": 45.725245
    },
    {
        "name": "西北政法大学",
        "lng": 108.922429,
        "lat": 34.160079
    },
    {
        "name": "上海第二工业大学",
        "lng": 121.658149,
        "lat": 31.270235
    },
    {
        "name": "山东大学（威海）",
        "lng": 122.064651,
        "lat": 37.538457
    },
    {
        "name": "山东第一医科大学",
        "lng": 117.506614,
        "lat": 36.67092
    },
    {
        "name": "大连工业大学",
        "lng": 121.53422,
        "lat": 38.979392
    },
    {
        "name": "北京林业大学",
        "lng": 116.35146,
        "lat": 40.00819
    },
    {
        "name": "湖北经济学院",
        "lng": 114.442721,
        "lat": 30.42425
    },
    {
        "name": "潍坊学院",
        "lng": 119.186636,
        "lat": 36.723588
    },
    {
        "name": "沈阳航空航天大学",
        "lng": 123.414885,
        "lat": 41.931849
    },
    {
        "name": "长春理工大学",
        "lng": 125.320006,
        "lat": 43.842539
    },
    {
        "name": "陕西科技大学",
        "lng": 108.983631,
        "lat": 34.383906
    },
    {
        "name": "渤海大学",
        "lng": 121.124817,
        "lat": 41.092012
    },
    {
        "name": "上海商学院",
        "lng": 121.463114,
        "lat": 30.947048
    },
    {
        "name": "上海海关学院",
        "lng": 121.584489,
        "lat": 31.174944
    },
    {
        "name": "大连外国语大学",
        "lng": 121.314685,
        "lat": 38.819576
    },
    {
        "name": "天津城建大学",
        "lng": 117.101884,
        "lat": 39.101033
    },
    {
        "name": "天津中医药大学",
        "lng": 117.077635,
        "lat": 38.958945
    },
    {
        "name": "西安医学院",
        "lng": 109.002184,
        "lat": 34.390717
    },
    {
        "name": "南京林业大学",
        "lng": 118.823369,
        "lat": 32.085309
    },
    {
        "name": "河南工程学院",
        "lng": 113.698577,
        "lat": 34.628985
    },
    {
        "name": "辽宁师范大学",
        "lng": 121.568933,
        "lat": 38.926191
    },
    {
        "name": "广东医科大学",
        "lng": 110.416644,
        "lat": 21.211313
    },
    {
        "name": "长春大学",
        "lng": 125.32768,
        "lat": 43.839924
    },
    {
        "name": "吉林财经大学",
        "lng": 125.440222,
        "lat": 43.825567
    },
    {
        "name": "内蒙古科技大学",
        "lng": 109.839293,
        "lat": 40.626366
    },
    {
        "name": "太原科技大学",
        "lng": 112.499391,
        "lat": 37.881601
    },
    {
        "name": "东北农业大学",
        "lng": 126.731357,
        "lat": 45.76003
    },
    {
        "name": "北京化工大学",
        "lng": 116.427674,
        "lat": 39.977968
    },
    {
        "name": "湖南理工学院",
        "lng": 113.152704,
        "lat": 29.346256
    },
    {
        "name": "闽江学院",
        "lng": 119.176895,
        "lat": 26.072713
    },
    {
        "name": "杭州师范大学",
        "lng": 120.022837,
        "lat": 30.299174
    },
    {
        "name": "哈尔滨商业大学",
        "lng": 126.57088,
        "lat": 45.826205
    },
    {
        "name": "日照职业技术学院",
        "lng": 119.545959,
        "lat": 35.468116
    },
    {
        "name": "武汉轻工大学",
        "lng": 114.240892,
        "lat": 30.645967
    },
    {
        "name": "广州中医药大学",
        "lng": 113.410495,
        "lat": 23.06413
    },
    {
        "name": "吉首大学",
        "lng": 109.731388,
        "lat": 28.293269
    },
    {
        "name": "大连民族大学",
        "lng": 121.781714,
        "lat": 39.051454
    },
    {
        "name": "天津外国语大学",
        "lng": 117.216346,
        "lat": 39.114374
    },
    {
        "name": "长春师范大学",
        "lng": 125.401931,
        "lat": 43.919075
    },
    {
        "name": "滨州医学院",
        "lng": 118.019744,
        "lat": 37.37766
    },
    {
        "name": "常州大学",
        "lng": 119.961774,
        "lat": 31.6897
    },
    {
        "name": "贵州师范大学",
        "lng": 106.729165,
        "lat": 26.594799
    },
    {
        "name": "辽宁工业大学",
        "lng": 121.12963,
        "lat": 41.15025
    },
    {
        "name": "潍坊医学院",
        "lng": 119.040166,
        "lat": 36.672282
    },
    {
        "name": "东北石油大学",
        "lng": 125.155612,
        "lat": 46.598274
    },
    {
        "name": "安徽医科大学",
        "lng": 117.275325,
        "lat": 31.851986
    },
    {
        "name": "西北民族大学",
        "lng": 103.825969,
        "lat": 36.050215
    },
    {
        "name": "福建工程学院",
        "lng": 119.201242,
        "lat": 26.041485
    },
    {
        "name": "福建农林大学",
        "lng": 119.243461,
        "lat": 26.088571
    },
    {
        "name": "上海政法学院",
        "lng": 121.17943,
        "lat": 31.117084
    },
    {
        "name": "江苏师范大学",
        "lng": 117.186728,
        "lat": 34.202541
    },
    {
        "name": "广东金融学院",
        "lng": 113.387067,
        "lat": 23.207203
    },
    {
        "name": "浙江传媒学院",
        "lng": 120.350072,
        "lat": 30.326961
    },
    {
        "name": "大连医科大学",
        "lng": 121.32138,
        "lat": 38.810167
    },
    {
        "name": "武汉纺织大学",
        "lng": 114.344906,
        "lat": 30.382144
    },
    {
        "name": "厦门大学嘉庚学院",
        "lng": 118.054246,
        "lat": 24.373575
    },
    {
        "name": "北京理工大学珠海学院",
        "lng": 113.547319,
        "lat": 22.370706
    },
    {
        "name": "兰州理工大学",
        "lng": 103.783038,
        "lat": 36.061345
    },
    {
        "name": "电子科技大学成都学院",
        "lng": 103.971765,
        "lat": 30.734216
    },
    {
        "name": "江苏科技大学",
        "lng": 119.476475,
        "lat": 32.200768
    },
    {
        "name": "河北师范大学",
        "lng": 114.526421,
        "lat": 38.003617
    },
    {
        "name": "安徽建筑大学",
        "lng": 117.229897,
        "lat": 31.750442
    },
    {
        "name": "云南师范大学",
        "lng": 102.859747,
        "lat": 24.867435
    },
    {
        "name": "东北大学秦皇岛分校",
        "lng": 119.558501,
        "lat": 39.928848
    },
    {
        "name": "山东政法学院",
        "lng": 117.093395,
        "lat": 36.673487
    },
    {
        "name": "南京中医药大学",
        "lng": 118.951003,
        "lat": 32.109189
    },
    {
        "name": "河北地质大学",
        "lng": 114.556092,
        "lat": 38.025828
    },
    {
        "name": "陕西理工大学",
        "lng": 107.059138,
        "lat": 33.075625
    },
    {
        "name": "广西医科大学",
        "lng": 108.357299,
        "lat": 22.803457
    },
    {
        "name": "湖南中医药大学",
        "lng": 112.900747,
        "lat": 28.135339
    },
    {
        "name": "浙大城市学院",
        "lng": 120.161952,
        "lat": 30.328663
    },
    {
        "name": "中国石油大学（北京）",
        "lng": 116.253981,
        "lat": 40.224412
    },
    {
        "name": "湖北中医药大学",
        "lng": 114.276969,
        "lat": 30.453788
    },
    {
        "name": "江西科技师范大学",
        "lng": 115.825902,
        "lat": 28.673284
    },
    {
        "name": "四川文理学院",
        "lng": 107.475763,
        "lat": 31.23931
    },
    {
        "name": "浙江财经大学",
        "lng": 120.401806,
        "lat": 30.326721
    },
    {
        "name": "沈阳大学",
        "lng": 123.467062,
        "lat": 41.832252
    },
    {
        "name": "广西民族大学",
        "lng": 108.242055,
        "lat": 22.849621
    },
    {
        "name": "汕头大学",
        "lng": 116.639757,
        "lat": 23.41896
    },
    {
        "name": "黑龙江科技大学",
        "lng": 126.660046,
        "lat": 45.824787
    },
    {
        "name": "中国民用航空飞行学院",
        "lng": 104.313105,
        "lat": 30.956069
    },
    {
        "name": "商丘师范学院",
        "lng": 115.626619,
        "lat": 34.440029
    },
    {
        "name": "泰山学院",
        "lng": 117.045757,
        "lat": 36.228513
    },
    {
        "name": "湖南工程学院",
        "lng": 112.939517,
        "lat": 27.853052
    },
    {
        "name": "青岛城市学院",
        "lng": 120.511203,
        "lat": 36.313194
    },
    {
        "name": "成都医学院",
        "lng": 104.201254,
        "lat": 30.822907
    },
    {
        "name": "辽宁科技大学",
        "lng": 123.067322,
        "lat": 41.109661
    },
    {
        "name": "湖北师范大学",
        "lng": 115.069632,
        "lat": 30.235758
    },
    {
        "name": "安徽工程大学",
        "lng": 118.420835,
        "lat": 31.346784
    },
    {
        "name": "内蒙古师范大学",
        "lng": 111.701164,
        "lat": 40.809629
    },
    {
        "name": "福建医科大学",
        "lng": 119.193276,
        "lat": 26.075187
    },
    {
        "name": "珠海科技学院",
        "lng": 113.41162,
        "lat": 22.056773
    },
    {
        "name": "江西农业大学",
        "lng": 115.839464,
        "lat": 28.768205
    },
    {
        "name": "西京学院",
        "lng": 108.935555,
        "lat": 34.138811
    },
    {
        "name": "北方民族大学",
        "lng": 106.113651,
        "lat": 38.503242
    },
    {
        "name": "燕京理工学院",
        "lng": 116.811005,
        "lat": 40.00617
    },
    {
        "name": "沈阳建筑大学",
        "lng": 123.522614,
        "lat": 41.749347
    },
    {
        "name": "北京工商大学",
        "lng": 116.323335,
        "lat": 39.931512
    },
    {
        "name": "新疆大学",
        "lng": 87.620781,
        "lat": 43.773611
    },
    {
        "name": "河北农业大学",
        "lng": 115.489891,
        "lat": 38.855841
    },
    {
        "name": "安徽农业大学",
        "lng": 117.263408,
        "lat": 31.868279
    },
    {
        "name": "中华女子学院",
        "lng": 116.441903,
        "lat": 40.000844
    },
    {
        "name": "开封大学",
        "lng": 114.340939,
        "lat": 34.832959
    },
    {
        "name": "五邑大学",
        "lng": 113.0913,
        "lat": 22.60353
    },
    {
        "name": "贵州财经大学",
        "lng": 106.648746,
        "lat": 26.384099
    },
    {
        "name": "湖南农业大学",
        "lng": 113.090025,
        "lat": 28.18606
    },
    {
        "name": "北华航天工业学院",
        "lng": 116.737715,
        "lat": 39.532618
    },
    {
        "name": "济宁医学院",
        "lng": 116.587175,
        "lat": 35.34272
    },
    {
        "name": "山西师范大学",
        "lng": 112.668678,
        "lat": 37.748519
    },
    {
        "name": "重庆城市科技学院",
        "lng": 105.893234,
        "lat": 29.39739
    },
    {
        "name": "辽宁工程技术大学",
        "lng": 121.670848,
        "lat": 42.028814
    },
    {
        "name": "辽宁石油化工大学",
        "lng": 123.798166,
        "lat": 41.863659
    },
    {
        "name": "山西大同大学",
        "lng": 113.360792,
        "lat": 40.100621
    },
    {
        "name": "南昌工程学院",
        "lng": 116.037492,
        "lat": 28.695855
    },
    {
        "name": "湖南工商大学",
        "lng": 112.925737,
        "lat": 28.225764
    },
    {
        "name": "郑州师范学院",
        "lng": 113.662977,
        "lat": 34.867701
    },
    {
        "name": "中国地质大学（北京）",
        "lng": 116.354524,
        "lat": 39.996876
    },
    {
        "name": "东莞理工学院",
        "lng": 113.880882,
        "lat": 22.909223
    },
    {
        "name": "华北电力大学保定校区",
        "lng": 115.511979,
        "lat": 38.883008
    },
    {
        "name": "河南城建学院",
        "lng": 113.193115,
        "lat": 33.779533
    },
    {
        "name": "川北医学院",
        "lng": 106.086844,
        "lat": 30.801407
    },
    {
        "name": "南京晓庄学院",
        "lng": 118.908211,
        "lat": 31.899029
    },
    {
        "name": "北京语言大学",
        "lng": 116.352933,
        "lat": 40.000642
    },
    {
        "name": "齐齐哈尔大学",
        "lng": 123.939068,
        "lat": 47.358055
    },
    {
        "name": "遵义医科大学",
        "lng": 107.074054,
        "lat": 27.730812
    },
    {
        "name": "内蒙古工业大学",
        "lng": 111.690109,
        "lat": 40.852623
    },
    {
        "name": "湘南学院",
        "lng": 113.107715,
        "lat": 25.789994
    },
    {
        "name": "河北金融学院",
        "lng": 115.505713,
        "lat": 38.92512
    },
    {
        "name": "南宁师范大学",
        "lng": 108.326571,
        "lat": 22.846922
    },
    {
        "name": "井冈山大学",
        "lng": 115.038877,
        "lat": 27.117775
    },
    {
        "name": "海南医学院",
        "lng": 110.340627,
        "lat": 19.987844
    },
    {
        "name": "山西农业大学",
        "lng": 112.590262,
        "lat": 37.429983
    },
    {
        "name": "重庆三峡学院",
        "lng": 108.458786,
        "lat": 30.757785
    },
    {
        "name": "九江学院",
        "lng": 116.018822,
        "lat": 29.685495
    },
    {
        "name": "上海电机学院",
        "lng": 121.891945,
        "lat": 30.894216
    },
    {
        "name": "广州南方学院",
        "lng": 113.685752,
        "lat": 23.638368
    },
    {
        "name": "西安文理学院",
        "lng": 108.912655,
        "lat": 34.221412
    },
    {
        "name": "贵州医科大学",
        "lng": 106.721792,
        "lat": 26.604248
    },
    {
        "name": "泉州师范学院",
        "lng": 118.677208,
        "lat": 24.874507
    },
    {
        "name": "中国刑事警察学院",
        "lng": 123.388133,
        "lat": 41.849907
    },
    {
        "name": "中国劳动关系学院",
        "lng": 116.32404,
        "lat": 39.935305
    },
    {
        "name": "淮北师范大学",
        "lng": 116.81761,
        "lat": 33.989397
    },
    {
        "name": "佳木斯大学",
        "lng": 130.368294,
        "lat": 46.791715
    },
    {
        "name": "长春工程学院",
        "lng": 125.290173,
        "lat": 43.860063
    },
    {
        "name": "温州医科大学",
        "lng": 120.717326,
        "lat": 27.931535
    },
    {
        "name": "海军军医大学",
        "lng": 121.534852,
        "lat": 31.314612
    },
    {
        "name": "江苏理工学院",
        "lng": 119.925132,
        "lat": 31.756585
    },
    {
        "name": "沈阳师范大学",
        "lng": 123.422281,
        "lat": 41.914276
    },
    {
        "name": "徐州医科大学",
        "lng": 117.263359,
        "lat": 34.267697
    },
    {
        "name": "西南财经大学天府学院",
        "lng": 104.694595,
        "lat": 31.498206
    },
    {
        "name": "河北科技师范学院",
        "lng": 119.55473,
        "lat": 39.918243
    },
    {
        "name": "西安培华学院",
        "lng": 108.94226,
        "lat": 34.12926
    },
    {
        "name": "长沙学院",
        "lng": 113.036201,
        "lat": 28.252655
    },
    {
        "name": "延安大学",
        "lng": 109.469607,
        "lat": 36.626077
    },
    {
        "name": "浙江万里学院",
        "lng": 121.569141,
        "lat": 29.823102
    },
    {
        "name": "湖北理工学院",
        "lng": 115.033353,
        "lat": 30.213857
    },
    {
        "name": "德州学院",
        "lng": 116.339471,
        "lat": 37.476906
    },
    {
        "name": "西安欧亚学院",
        "lng": 108.928454,
        "lat": 34.182481
    },
    {
        "name": "北京城市学院",
        "lng": 116.822551,
        "lat": 40.165316
    },
    {
        "name": "重庆交通职业学院",
        "lng": 106.29283,
        "lat": 29.411582
    },
    {
        "name": "广东石油化工学院",
        "lng": 110.929277,
        "lat": 21.685018
    },
    {
        "name": "西交利物浦大学",
        "lng": 120.746339,
        "lat": 31.279684
    },
    {
        "name": "赣南师范大学",
        "lng": 114.893039,
        "lat": 25.80179
    },
    {
        "name": "安阳工学院",
        "lng": 114.356486,
        "lat": 36.071688
    },
    {
        "name": "陕西中医药大学",
        "lng": 108.747781,
        "lat": 34.322022
    },
    {
        "name": "北方工业大学",
        "lng": 116.21485,
        "lat": 39.933738
    },
    {
        "name": "厦门医学院",
        "lng": 118.011341,
        "lat": 24.613924
    },
    {
        "name": "天津职业技术师范大学",
        "lng": 117.299484,
        "lat": 39.06789
    },
    {
        "name": "闽南师范大学",
        "lng": 117.653531,
        "lat": 24.512615
    },
    {
        "name": "重庆移通学院",
        "lng": 106.246223,
        "lat": 30.006867
    },
    {
        "name": "广西财经学院",
        "lng": 108.304806,
        "lat": 22.842011
    },
    {
        "name": "文华学院",
        "lng": 114.444987,
        "lat": 30.499873
    },
    {
        "name": "南京医科大学",
        "lng": 118.897191,
        "lat": 31.944119
    },
    {
        "name": "江西中医药大学",
        "lng": 115.757395,
        "lat": 28.681639
    },
    {
        "name": "吉林建筑大学",
        "lng": 125.41427,
        "lat": 43.801673
    },
    {
        "name": "四川工商学院",
        "lng": 103.992488,
        "lat": 30.825562
    },
    {
        "name": "长江师范学院",
        "lng": 107.269608,
        "lat": 29.75571
    },
    {
        "name": "湖北科技学院",
        "lng": 114.343229,
        "lat": 29.85549
    },
    {
        "name": "昆明学院",
        "lng": 102.806006,
        "lat": 24.981207
    },
    {
        "name": "云南农业大学",
        "lng": 102.755738,
        "lat": 25.134885
    },
    {
        "name": "吉林农业大学",
        "lng": 125.417041,
        "lat": 43.816805
    },
    {
        "name": "北京建筑大学",
        "lng": 116.347969,
        "lat": 39.940685
    },
    {
        "name": "枣庄学院",
        "lng": 117.544668,
        "lat": 34.906942
    },
    {
        "name": "广州医科大学",
        "lng": 113.432316,
        "lat": 23.050468
    },
    {
        "name": "湖北第二师范学院",
        "lng": 114.45557,
        "lat": 30.486322
    },
    {
        "name": "邵阳学院",
        "lng": 111.44839,
        "lat": 27.206649
    },
    {
        "name": "温州大学",
        "lng": 120.701726,
        "lat": 27.924047
    },
    {
        "name": "长沙医学院",
        "lng": 112.8808,
        "lat": 28.30219
    },
    {
        "name": "广东药科大学",
        "lng": 113.41823,
        "lat": 23.062029
    },
    {
        "name": "广东技术师范大学",
        "lng": 113.378211,
        "lat": 23.137131
    },
    {
        "name": "黄淮学院",
        "lng": 114.01277,
        "lat": 33.016735
    },
    {
        "name": "丽水学院",
        "lng": 119.909827,
        "lat": 28.465793
    },
    {
        "name": "武汉职业技术学院",
        "lng": 114.422856,
        "lat": 30.490329
    },
    {
        "name": "广西科技大学",
        "lng": 109.453324,
        "lat": 24.336022
    },
    {
        "name": "北京信息科技大学",
        "lng": 116.389022,
        "lat": 39.995253
    },
    {
        "name": "佛山科学技术学院",
        "lng": 113.104391,
        "lat": 23.03014
    },
    {
        "name": "湖北民族大学",
        "lng": 109.509443,
        "lat": 30.301281
    },
    {
        "name": "宁波诺丁汉大学",
        "lng": 121.56878,
        "lat": 29.806395
    },
    {
        "name": "西北师范大学",
        "lng": 103.744892,
        "lat": 36.103823
    },
    {
        "name": "合肥学院",
        "lng": 117.259265,
        "lat": 31.758259
    },
    {
        "name": "青海大学",
        "lng": 101.755818,
        "lat": 36.734403
    },
    {
        "name": "重庆医药高等专科学校",
        "lng": 106.319512,
        "lat": 29.632984
    },
    {
        "name": "江西科技学院",
        "lng": 116.025864,
        "lat": 28.686736
    },
    {
        "name": "北京电子科技学院",
        "lng": 116.286097,
        "lat": 39.843926
    },
    {
        "name": "防灾科技学院",
        "lng": 116.806272,
        "lat": 39.969312
    },
    {
        "name": "河南工学院",
        "lng": 113.960603,
        "lat": 35.306362
    },
    {
        "name": "昆明医科大学",
        "lng": 102.832969,
        "lat": 24.851662
    },
    {
        "name": "许昌学院",
        "lng": 113.875612,
        "lat": 34.049918
    },
    {
        "name": "内蒙古财经大学",
        "lng": 111.63656,
        "lat": 40.862715
    },
    {
        "name": "武昌工学院",
        "lng": 114.291844,
        "lat": 30.48946
    },
    {
        "name": "保定理工学院",
        "lng": 115.491787,
        "lat": 38.821286
    },
    {
        "name": "宁夏大学",
        "lng": 106.147853,
        "lat": 38.502493
    },
    {
        "name": "浙江农林大学",
        "lng": 119.734742,
        "lat": 30.262818
    },
    {
        "name": "沈阳化工大学",
        "lng": 123.240892,
        "lat": 41.753269
    },
    {
        "name": "上海建桥学院",
        "lng": 121.898611,
        "lat": 30.897635
    },
    {
        "name": "内蒙古农业大学",
        "lng": 111.725903,
        "lat": 40.812759
    },
    {
        "name": "菏泽学院",
        "lng": 115.472037,
        "lat": 35.277474
    },
    {
        "name": "石家庄学院",
        "lng": 114.606599,
        "lat": 38.02581
    },
    {
        "name": "咸阳师范学院",
        "lng": 108.73469,
        "lat": 34.367718
    },
    {
        "name": "嘉兴学院",
        "lng": 120.735976,
        "lat": 30.752886
    },
    {
        "name": "湖州师范学院",
        "lng": 120.129763,
        "lat": 30.879427
    },
    {
        "name": "武汉东湖学院",
        "lng": 114.323387,
        "lat": 30.428082
    },
    {
        "name": "新乡学院",
        "lng": 113.947998,
        "lat": 35.297174
    },
    {
        "name": "宝鸡文理学院",
        "lng": 107.216578,
        "lat": 34.354694
    },
    {
        "name": "岭南师范学院",
        "lng": 110.353396,
        "lat": 21.275264
    },
    {
        "name": "吉林师范大学",
        "lng": 124.351479,
        "lat": 43.163301
    },
    {
        "name": "内蒙古医科大学",
        "lng": 111.442054,
        "lat": 40.751925
    },
    {
        "name": "韶关学院",
        "lng": 113.678461,
        "lat": 24.78069
    },
    {
        "name": "北京体育大学",
        "lng": 116.325654,
        "lat": 40.029575
    },
    {
        "name": "宜宾学院",
        "lng": 104.620282,
        "lat": 28.799496
    },
    {
        "name": "南开大学滨海学院",
        "lng": 117.456076,
        "lat": 38.868211
    },
    {
        "name": "河南开封科技传媒学院",
        "lng": 114.306325,
        "lat": 34.825581
    },
    {
        "name": "长春中医药大学",
        "lng": 125.426589,
        "lat": 43.835444
    },
    {
        "name": "惠州学院",
        "lng": 114.424935,
        "lat": 23.044727
    },
    {
        "name": "廊坊师范学院",
        "lng": 116.679182,
        "lat": 39.532873
    },
    {
        "name": "浙江科技学院",
        "lng": 120.03169,
        "lat": 30.22612
    },
    {
        "name": "兰州财经大学",
        "lng": 103.970825,
        "lat": 36.003868
    },
    {
        "name": "上海杉达学院",
        "lng": 121.665544,
        "lat": 31.274949
    },
    {
        "name": "南通理工学院",
        "lng": 120.815657,
        "lat": 32.048625
    },
    {
        "name": "云南民族大学",
        "lng": 102.858319,
        "lat": 24.844327
    },
    {
        "name": "浙江中医药大学",
        "lng": 120.156718,
        "lat": 30.181545
    },
    {
        "name": "南昌理工学院",
        "lng": 115.867585,
        "lat": 28.78808
    },
    {
        "name": "北京石油化工学院",
        "lng": 116.332327,
        "lat": 39.753911
    },
    {
        "name": "大理大学",
        "lng": 100.161979,
        "lat": 25.676203
    },
    {
        "name": "新疆医科大学",
        "lng": 87.586247,
        "lat": 43.843278
    },
    {
        "name": "湖南文理学院",
        "lng": 111.677854,
        "lat": 29.054359
    },
    {
        "name": "河北建筑工程学院",
        "lng": 114.90381,
        "lat": 40.761555
    },
    {
        "name": "湖南科技学院",
        "lng": 111.612915,
        "lat": 26.211772
    },
    {
        "name": "邯郸学院",
        "lng": 114.51572,
        "lat": 36.581593
    },
    {
        "name": "景德镇陶瓷大学",
        "lng": 117.323354,
        "lat": 29.33464
    },
    {
        "name": "辽宁中医药大学",
        "lng": 123.441202,
        "lat": 41.837331
    },
    {
        "name": "安徽科技学院",
        "lng": 117.570109,
        "lat": 32.879922
    },
    {
        "name": "黑龙江八一农垦大学",
        "lng": 125.174669,
        "lat": 46.593607
    },
    {
        "name": "国际关系学院",
        "lng": 116.292752,
        "lat": 40.010144
    },
    {
        "name": "湖南第一师范学院",
        "lng": 112.87397,
        "lat": 28.20148
    },
    {
        "name": "中央司法警官学院",
        "lng": 115.521249,
        "lat": 38.887012
    },
    {
        "name": "大连理工大学城市学院",
        "lng": 121.84886,
        "lat": 39.155855
    },
    {
        "name": "湖北医药学院",
        "lng": 110.791545,
        "lat": 32.626381
    },
    {
        "name": "滨州学院",
        "lng": 117.993217,
        "lat": 37.391835
    },
    {
        "name": "成都师范学院",
        "lng": 103.835336,
        "lat": 30.68211
    },
    {
        "name": "浙江工业大学之江学院",
        "lng": 120.488265,
        "lat": 30.099381
    },
    {
        "name": "黑龙江中医药大学",
        "lng": 126.654805,
        "lat": 45.732555
    },
    {
        "name": "锦州医科大学",
        "lng": 121.149564,
        "lat": 41.155208
    },
    {
        "name": "黄河科技学院",
        "lng": 113.683072,
        "lat": 34.69353
    },
    {
        "name": "新疆农业大学",
        "lng": 87.57342,
        "lat": 43.819605
    },
    {
        "name": "重庆财经学院",
        "lng": 106.533063,
        "lat": 29.351652
    },
    {
        "name": "湖北文理学院",
        "lng": 112.048585,
        "lat": 32.006294
    },
    {
        "name": "绵阳师范学院",
        "lng": 104.605137,
        "lat": 31.459785
    },
    {
        "name": "烟台理工学院",
        "lng": 121.48439,
        "lat": 37.460837
    },
    {
        "name": "沈阳医学院",
        "lng": 123.415043,
        "lat": 41.894656
    },
    {
        "name": "徐州工程学院",
        "lng": 117.305848,
        "lat": 34.199387
    },
    {
        "name": "深圳职业技术学院",
        "lng": 113.959053,
        "lat": 22.593081
    },
    {
        "name": "河北环境工程学院",
        "lng": 119.459776,
        "lat": 39.874193
    },
    {
        "name": "山东职业学院",
        "lng": 117.333729,
        "lat": 36.676081
    },
    {
        "name": "宁波工程学院",
        "lng": 121.618692,
        "lat": 29.917482
    },
    {
        "name": "沈阳工程学院",
        "lng": 123.425593,
        "lat": 41.92507
    },
    {
        "name": "郑州工商学院",
        "lng": 113.896414,
        "lat": 34.79794
    },
    {
        "name": "北京师范大学-香港浸会大学联合国际学院",
        "lng": 113.527687,
        "lat": 22.356223
    },
    {
        "name": "台州学院",
        "lng": 121.396486,
        "lat": 28.659755
    },
    {
        "name": "南京森林警察学院",
        "lng": 118.924053,
        "lat": 32.114522
    },
    {
        "name": "齐鲁医药学院",
        "lng": 117.921921,
        "lat": 36.831332
    },
    {
        "name": "河北北方学院",
        "lng": 114.885358,
        "lat": 40.77713
    },
    {
        "name": "哈尔滨工业大学（威海）",
        "lng": 122.089909,
        "lat": 37.540047
    },
    {
        "name": "宜春学院",
        "lng": 114.36372,
        "lat": 27.798296
    },
    {
        "name": "成都职业技术学院",
        "lng": 104.068525,
        "lat": 30.598907
    },
    {
        "name": "攀枝花学院",
        "lng": 101.732177,
        "lat": 26.573981
    },
    {
        "name": "浙江海洋大学",
        "lng": 122.196569,
        "lat": 29.966549
    },
    {
        "name": "天津市职业大学",
        "lng": 117.195466,
        "lat": 39.236038
    },
    {
        "name": "内江师范学院",
        "lng": 105.056137,
        "lat": 29.593585
    },
    {
        "name": "福建中医药大学",
        "lng": 119.186356,
        "lat": 26.079517
    },
    {
        "name": "西南林业大学",
        "lng": 102.764992,
        "lat": 25.066115
    },
    {
        "name": "黄冈师范学院",
        "lng": 114.933266,
        "lat": 30.455736
    },
    {
        "name": "山东女子学院",
        "lng": 116.830814,
        "lat": 36.562139
    },
    {
        "name": "北部湾大学",
        "lng": 108.622482,
        "lat": 21.904202
    },
    {
        "name": "成都工业学院",
        "lng": 103.892736,
        "lat": 30.793023
    },
    {
        "name": "承德医学院",
        "lng": 117.963582,
        "lat": 41.039134
    },
    {
        "name": "西藏大学",
        "lng": 91.18678,
        "lat": 29.648903
    },
    {
        "name": "中国矿业大学（北京）",
        "lng": 116.354937,
        "lat": 40.003785
    },
    {
        "name": "武汉城市学院",
        "lng": 114.433983,
        "lat": 30.592144
    },
    {
        "name": "哈尔滨学院",
        "lng": 126.613012,
        "lat": 45.712953
    },
    {
        "name": "湖北工程学院",
        "lng": 113.91966,
        "lat": 30.941635
    },
    {
        "name": "西昌学院",
        "lng": 102.219489,
        "lat": 27.952339
    },
    {
        "name": "天津农学院",
        "lng": 116.981518,
        "lat": 39.167527
    },
    {
        "name": "大连财经学院",
        "lng": 121.838325,
        "lat": 39.092157
    },
    {
        "name": "乐山师范学院",
        "lng": 103.757641,
        "lat": 29.565402
    },
    {
        "name": "重庆对外经贸学院",
        "lng": 106.253848,
        "lat": 30.00281
    },
    {
        "name": "西安外事学院",
        "lng": 108.874834,
        "lat": 34.236512
    },
    {
        "name": "蚌埠医学院",
        "lng": 117.438562,
        "lat": 32.911226
    },
    {
        "name": "保定学院",
        "lng": 115.585285,
        "lat": 38.887037
    },
    {
        "name": "陕西能源职业技术学院",
        "lng": 108.720051,
        "lat": 34.363906
    },
    {
        "name": "山东商业职业技术学院",
        "lng": 117.277332,
        "lat": 36.639894
    },
    {
        "name": "武昌首义学院",
        "lng": 114.313311,
        "lat": 30.493248
    },
    {
        "name": "武汉学院",
        "lng": 114.302535,
        "lat": 30.447796
    },
    {
        "name": "广西中医药大学",
        "lng": 108.32562,
        "lat": 22.846845
    },
    {
        "name": "沈阳药科大学",
        "lng": 123.451265,
        "lat": 41.7741
    },
    {
        "name": "皖南医学院",
        "lng": 118.367165,
        "lat": 31.29409
    },
    {
        "name": "北京物资学院",
        "lng": 116.644583,
        "lat": 39.936967
    },
    {
        "name": "太原师范学院",
        "lng": 112.715503,
        "lat": 37.755165
    },
    {
        "name": "桂林医学院",
        "lng": 110.168899,
        "lat": 25.230381
    },
    {
        "name": "武汉工商学院",
        "lng": 114.280634,
        "lat": 30.464757
    },
    {
        "name": "北京第二外国语学院",
        "lng": 116.5701,
        "lat": 39.918528
    },
    {
        "name": "重庆第二师范学院",
        "lng": 106.582937,
        "lat": 29.516349
    },
    {
        "name": "黑龙江工程学院",
        "lng": 126.69387,
        "lat": 45.792091
    },
    {
        "name": "安徽中医药大学",
        "lng": 117.39762,
        "lat": 31.944119
    },
    {
        "name": "塔里木大学",
        "lng": 81.303995,
        "lat": 40.550221
    },
    {
        "name": "南京传媒学院",
        "lng": 118.895612,
        "lat": 31.891205
    },
    {
        "name": "外交学院",
        "lng": 116.352266,
        "lat": 39.932071
    },
    {
        "name": "空军军医大学",
        "lng": 108.994701,
        "lat": 34.276696
    },
    {
        "name": "武夷学院",
        "lng": 118.010511,
        "lat": 27.734178
    },
    {
        "name": "南京工业职业技术大学",
        "lng": 118.945686,
        "lat": 32.126757
    },
    {
        "name": "广州新华学院",
        "lng": 113.394423,
        "lat": 23.201573
    },
    {
        "name": "山东现代学院",
        "lng": 117.362024,
        "lat": 36.678327
    },
    {
        "name": "阜阳师范大学",
        "lng": 115.790755,
        "lat": 32.896641
    },
    {
        "name": "肇庆学院",
        "lng": 112.501586,
        "lat": 23.112805
    },
    {
        "name": "新乡医学院三全学院",
        "lng": 113.6869,
        "lat": 34.998651
    },
    {
        "name": "齐鲁理工学院",
        "lng": 117.549008,
        "lat": 36.685582
    },
    {
        "name": "荆楚理工学院",
        "lng": 112.199088,
        "lat": 31.051181
    },
    {
        "name": "湖南工学院",
        "lng": 112.69125,
        "lat": 26.888519
    },
    {
        "name": "广东白云学院",
        "lng": 113.214118,
        "lat": 23.278322
    },
    {
        "name": "鞍山师范学院",
        "lng": 123.002236,
        "lat": 41.082871
    },
    {
        "name": "绍兴文理学院",
        "lng": 120.577684,
        "lat": 29.992743
    },
    {
        "name": "郑州财经学院",
        "lng": 113.607671,
        "lat": 34.867305
    },
    {
        "name": "贵州民族大学",
        "lng": 106.676709,
        "lat": 26.470687
    },
    {
        "name": "广州城市理工学院",
        "lng": 113.179042,
        "lat": 23.440751
    },
    {
        "name": "厦门工学院",
        "lng": 118.072812,
        "lat": 24.622581
    },
    {
        "name": "武汉商学院",
        "lng": 114.093785,
        "lat": 30.466056
    },
    {
        "name": "韩山师范学院",
        "lng": 116.672606,
        "lat": 23.66189
    },
    {
        "name": "嘉应学院",
        "lng": 116.13923,
        "lat": 24.332811
    },
    {
        "name": "渭南师范学院",
        "lng": 109.471676,
        "lat": 34.497807
    },
    {
        "name": "三江学院",
        "lng": 118.759861,
        "lat": 31.963802
    },
    {
        "name": "武汉工程科技学院",
        "lng": 114.34516,
        "lat": 30.354851
    },
    {
        "name": "平顶山学院",
        "lng": 113.216694,
        "lat": 33.752018
    },
    {
        "name": "仲恺农业工程学院",
        "lng": 113.451549,
        "lat": 23.379333
    },
    {
        "name": "成都文理学院",
        "lng": 104.470183,
        "lat": 30.851321
    },
    {
        "name": "北京科技大学天津学院",
        "lng": 117.405056,
        "lat": 39.552135
    },
    {
        "name": "山西中医药大学",
        "lng": 112.737103,
        "lat": 37.753133
    },
    {
        "name": "宝鸡职业技术学院",
        "lng": 107.30374,
        "lat": 34.346541
    },
    {
        "name": "西安航空学院",
        "lng": 108.89921,
        "lat": 34.268685
    },
    {
        "name": "金陵科技学院",
        "lng": 118.906145,
        "lat": 31.910135
    },
    {
        "name": "新疆财经大学",
        "lng": 87.55535,
        "lat": 43.888901
    },
    {
        "name": "北京协和医学院",
        "lng": 116.421237,
        "lat": 39.917338
    },
    {
        "name": "辽宁对外经贸学院",
        "lng": 121.162903,
        "lat": 38.825543
    },
    {
        "name": "重庆人文科技学院",
        "lng": 106.418855,
        "lat": 29.97492
    },
    {
        "name": "四川大学锦江学院",
        "lng": 103.87873,
        "lat": 30.22062
    },
    {
        "name": "河北工业职业技术大学",
        "lng": 114.467463,
        "lat": 37.984297
    },
    {
        "name": "吉林工商学院",
        "lng": 125.552131,
        "lat": 43.997311
    },
    {
        "name": "湖南财政经济学院",
        "lng": 112.931338,
        "lat": 28.210612
    },
    {
        "name": "中国人民解放军战略支援部队信息工程大学",
        "lng": 113.660042,
        "lat": 34.795574
    },
    {
        "name": "集美大学诚毅学院",
        "lng": 118.100783,
        "lat": 24.598294
    },
    {
        "name": "沈阳农业大学",
        "lng": 123.57625,
        "lat": 41.832739
    },
    {
        "name": "中原科技学院",
        "lng": 113.856546,
        "lat": 34.786198
    },
    {
        "name": "衡水学院",
        "lng": 115.668092,
        "lat": 37.748628
    },
    {
        "name": "浙大宁波理工学院",
        "lng": 121.580964,
        "lat": 29.821473
    },
    {
        "name": "四川工程职业技术学院",
        "lng": 104.397013,
        "lat": 31.092397
    },
    {
        "name": "武汉生物工程学院",
        "lng": 114.533094,
        "lat": 30.718908
    },
    {
        "name": "郑州经贸学院",
        "lng": 113.726495,
        "lat": 34.621237
    },
    {
        "name": "衡阳师范学院",
        "lng": 112.683061,
        "lat": 26.887123
    },
    {
        "name": "西安建筑科技大学华清学院",
        "lng": 109.025795,
        "lat": 34.252436
    },
    {
        "name": "淮南师范学院",
        "lng": 116.966616,
        "lat": 32.619575
    },
    {
        "name": "内蒙古民族大学",
        "lng": 122.259535,
        "lat": 43.634645
    },
    {
        "name": "北京服装学院",
        "lng": 116.437457,
        "lat": 39.980234
    },
    {
        "name": "西安科技大学高新学院",
        "lng": 108.890812,
        "lat": 34.109829
    },
    {
        "name": "郑州工业应用技术学院",
        "lng": 113.763753,
        "lat": 34.418885
    },
    {
        "name": "湖南医药学院",
        "lng": 110.008963,
        "lat": 27.545036
    },
    {
        "name": "成都航空职业技术学院",
        "lng": 104.246157,
        "lat": 30.534462
    },
    {
        "name": "常州工学院",
        "lng": 119.950589,
        "lat": 31.876041
    },
    {
        "name": "玉林师范学院",
        "lng": 110.20257,
        "lat": 22.684207
    },
    {
        "name": "山东医学高等专科学校",
        "lng": 118.294186,
        "lat": 35.144614
    },
    {
        "name": "江苏第二师范学院",
        "lng": 118.90971,
        "lat": 31.631484
    },
    {
        "name": "唐山师范学院",
        "lng": 118.180051,
        "lat": 39.679478
    },
    {
        "name": "沧州交通学院",
        "lng": 117.32044,
        "lat": 38.389979
    },
    {
        "name": "铜陵学院",
        "lng": 117.852884,
        "lat": 30.970181
    },
    {
        "name": "成都东软学院",
        "lng": 103.60298,
        "lat": 30.894435
    },
    {
        "name": "安庆师范大学",
        "lng": 117.004044,
        "lat": 30.614033
    },
    {
        "name": "上饶师范学院",
        "lng": 117.976913,
        "lat": 28.423035
    },
    {
        "name": "北京大学医学部",
        "lng": 116.365211,
        "lat": 39.990025
    },
    {
        "name": "新疆师范大学",
        "lng": 87.599119,
        "lat": 43.838903
    },
    {
        "name": "云南大学滇池学院",
        "lng": 102.680504,
        "lat": 24.978527
    },
    {
        "name": "湖南城市学院",
        "lng": 112.39367,
        "lat": 28.545415
    },
    {
        "name": "北京电影学院",
        "lng": 116.36231,
        "lat": 39.977148
    },
    {
        "name": "西安翻译学院",
        "lng": 109.016875,
        "lat": 34.029876
    },
    {
        "name": "中国人民警察大学",
        "lng": 116.669141,
        "lat": 39.537844
    },
    {
        "name": "济宁学院",
        "lng": 116.964544,
        "lat": 35.554157
    },
    {
        "name": "云南中医药大学",
        "lng": 102.829256,
        "lat": 24.844342
    },
    {
        "name": "四川交通职业技术学院",
        "lng": 103.822602,
        "lat": 30.694365
    },
    {
        "name": "贵阳学院",
        "lng": 106.784401,
        "lat": 26.563491
    },
    {
        "name": "天津财经大学珠江学院",
        "lng": 117.412575,
        "lat": 39.557157
    },
    {
        "name": "三明学院",
        "lng": 117.570982,
        "lat": 26.1988
    },
    {
        "name": "周口师范学院",
        "lng": 114.689688,
        "lat": 33.641926
    },
    {
        "name": "四川中医药高等专科学校",
        "lng": 104.692094,
        "lat": 31.511532
    },
    {
        "name": "广东第二师范学院",
        "lng": 113.191783,
        "lat": 23.411084
    },
    {
        "name": "成都理工大学工程技术学院",
        "lng": 103.738152,
        "lat": 29.56574
    },
    {
        "name": "河南职业技术学院",
        "lng": 113.797415,
        "lat": 34.802598
    },
    {
        "name": "云南警官学院",
        "lng": 102.697813,
        "lat": 25.082211
    },
    {
        "name": "汉口学院",
        "lng": 114.323313,
        "lat": 30.422245
    },
    {
        "name": "西安思源学院",
        "lng": 109.086615,
        "lat": 34.24114
    },
    {
        "name": "太原工业学院",
        "lng": 112.552108,
        "lat": 37.964127
    },
    {
        "name": "河北医科大学临床学院",
        "lng": 114.555165,
        "lat": 38.022413
    },
    {
        "name": "莆田学院",
        "lng": 119.014539,
        "lat": 25.44939
    },
    {
        "name": "遵义师范学院",
        "lng": 107.0597,
        "lat": 27.714174
    },
    {
        "name": "牡丹江师范学院",
        "lng": 129.567356,
        "lat": 44.594781
    },
    {
        "name": "哈尔滨金融学院",
        "lng": 126.742766,
        "lat": 45.72812
    },
    {
        "name": "西安交通工程学院",
        "lng": 108.598496,
        "lat": 34.11991
    },
    {
        "name": "长春财经学院",
        "lng": 125.420482,
        "lat": 43.794776
    },
    {
        "name": "湖南交通职业技术学院",
        "lng": 113.19148,
        "lat": 28.148144
    },
    {
        "name": "湖南女子学院",
        "lng": 113.014615,
        "lat": 28.121674
    },
    {
        "name": "邢台学院",
        "lng": 114.51114,
        "lat": 37.095344
    },
    {
        "name": "梧州学院",
        "lng": 111.322852,
        "lat": 23.503845
    },
    {
        "name": "甘肃农业大学",
        "lng": 103.706587,
        "lat": 36.096564
    },
    {
        "name": "南昌工学院",
        "lng": 115.766123,
        "lat": 28.616218
    },
    {
        "name": "辽宁科技学院",
        "lng": 123.719783,
        "lat": 41.46476
    },
    {
        "name": "常熟理工学院",
        "lng": 120.743012,
        "lat": 31.614752
    },
    {
        "name": "山西工程科技职业大学",
        "lng": 112.710735,
        "lat": 37.74812
    },
    {
        "name": "甘肃中医药大学",
        "lng": 103.875506,
        "lat": 36.049147
    },
    {
        "name": "武昌理工学院",
        "lng": 114.373741,
        "lat": 30.423303
    },
    {
        "name": "上海外国语大学贤达经济人文学院",
        "lng": 121.837637,
        "lat": 31.492978
    },
    {
        "name": "海口经济学院",
        "lng": 110.495174,
        "lat": 19.970277
    },
    {
        "name": "江苏警官学院",
        "lng": 118.662871,
        "lat": 32.098162
    },
    {
        "name": "运城学院",
        "lng": 110.938629,
        "lat": 35.129643
    },
    {
        "name": "青岛工学院",
        "lng": 120.027055,
        "lat": 36.245714
    },
    {
        "name": "中国人民武装警察部队警官学院",
        "lng": 104.04697,
        "lat": 30.519875
    },
    {
        "name": "吉林化工学院",
        "lng": 126.625598,
        "lat": 43.906693
    },
    {
        "name": "上海体育学院",
        "lng": 121.532312,
        "lat": 31.319055
    },
    {
        "name": "首都师范大学科德学院",
        "lng": 116.318854,
        "lat": 39.51881
    },
    {
        "name": "上海健康医学院",
        "lng": 121.616627,
        "lat": 31.111155
    },
    {
        "name": "黑龙江东方学院",
        "lng": 126.668829,
        "lat": 45.580626
    },
    {
        "name": "昆明城市学院",
        "lng": 102.654635,
        "lat": 25.086409
    },
    {
        "name": "南昌医学院",
        "lng": 115.898751,
        "lat": 28.579704
    },
    {
        "name": "河南工业职业技术学院",
        "lng": 112.603574,
        "lat": 33.043616
    },
    {
        "name": "北京印刷学院",
        "lng": 116.33571,
        "lat": 39.750402
    },
    {
        "name": "南京理工大学泰州科技学院",
        "lng": 119.947124,
        "lat": 32.469468
    },
    {
        "name": "威海职业学院",
        "lng": 121.946604,
        "lat": 37.452907
    },
    {
        "name": "广州航海学院",
        "lng": 113.484983,
        "lat": 23.106084
    },
    {
        "name": "淮阴师范学院",
        "lng": 119.013747,
        "lat": 33.647735
    },
    {
        "name": "山西医科大学汾阳学院",
        "lng": 111.797991,
        "lat": 37.28659
    },
    {
        "name": "三峡大学科技学院",
        "lng": 111.326457,
        "lat": 30.729198
    },
    {
        "name": "湖南涉外经济学院",
        "lng": 112.882351,
        "lat": 28.207866
    },
    {
        "name": "齐齐哈尔医学院",
        "lng": 123.957548,
        "lat": 47.384783
    },
    {
        "name": "山东协和学院",
        "lng": 117.276263,
        "lat": 36.739921
    },
    {
        "name": "漯河医学高等专科学校",
        "lng": 114.102093,
        "lat": 33.61014
    },
    {
        "name": "北京邮电大学世纪学院",
        "lng": 115.89997,
        "lat": 40.377471
    },
    {
        "name": "白城师范学院",
        "lng": 122.815542,
        "lat": 45.621098
    },
    {
        "name": "南京航空航天大学金城学院",
        "lng": 118.890924,
        "lat": 31.707112
    },
    {
        "name": "四川警察学院",
        "lng": 105.435038,
        "lat": 28.88224
    },
    {
        "name": "哈尔滨工业大学（深圳）",
        "lng": 113.96096,
        "lat": 22.543375
    },
    {
        "name": "中国矿业大学徐海学院",
        "lng": 117.212683,
        "lat": 34.229503
    },
    {
        "name": "北京中医药大学东方学院",
        "lng": 116.763132,
        "lat": 39.596173
    },
    {
        "name": "河南警察学院",
        "lng": 113.82817,
        "lat": 34.796774
    },
    {
        "name": "电子科技大学中山学院",
        "lng": 113.396955,
        "lat": 22.533684
    },
    {
        "name": "贵州中医药大学",
        "lng": 106.626434,
        "lat": 26.389441
    },
    {
        "name": "淄博职业学院",
        "lng": 117.933286,
        "lat": 36.833668
    },
    {
        "name": "重庆工程职业技术学院",
        "lng": 106.25755,
        "lat": 29.344529
    },
    {
        "name": "西安财经大学行知学院",
        "lng": 109.102769,
        "lat": 34.234216
    },
    {
        "name": "贵州师范学院",
        "lng": 106.803788,
        "lat": 26.649105
    },
    {
        "name": "四川民族学院",
        "lng": 102.181929,
        "lat": 30.102107
    },
    {
        "name": "湖南人文科技学院",
        "lng": 112.009313,
        "lat": 27.716925
    },
    {
        "name": "怀化学院",
        "lng": 110.029521,
        "lat": 27.579162
    },
    {
        "name": "湖北汽车工业学院",
        "lng": 110.745298,
        "lat": 32.656806
    },
    {
        "name": "吉利学院",
        "lng": 104.429198,
        "lat": 30.49417
    },
    {
        "name": "百色学院",
        "lng": 106.61517,
        "lat": 23.89589
    },
    {
        "name": "西北大学现代学院",
        "lng": 108.801496,
        "lat": 34.054827
    },
    {
        "name": "广东警官学院",
        "lng": 113.313035,
        "lat": 23.259864
    },
    {
        "name": "湖南工艺美术职业学院",
        "lng": 112.341059,
        "lat": 28.580762
    },
    {
        "name": "齐鲁师范学院",
        "lng": 117.502502,
        "lat": 36.661378
    },
    {
        "name": "长治医学院",
        "lng": 113.12463,
        "lat": 36.178657
    },
    {
        "name": "武汉华夏理工学院",
        "lng": 114.41652,
        "lat": 30.473194
    },
    {
        "name": "商丘医学高等专科学校",
        "lng": 115.714852,
        "lat": 34.36339
    },
    {
        "name": "浙江警察学院",
        "lng": 120.157241,
        "lat": 30.177223
    },
    {
        "name": "盐城师范学院",
        "lng": 120.16413,
        "lat": 33.389791
    },
    {
        "name": "武汉铁路职业技术学院",
        "lng": 114.417215,
        "lat": 30.437961
    },
    {
        "name": "广州工商学院",
        "lng": 113.188096,
        "lat": 23.44629
    },
    {
        "name": "山东农业工程学院",
        "lng": 117.101102,
        "lat": 36.701031
    },
    {
        "name": "武汉体育学院",
        "lng": 114.385028,
        "lat": 30.526661
    },
    {
        "name": "重庆电子工程职业学院",
        "lng": 106.33082,
        "lat": 29.624117
    },
    {
        "name": "宿州学院",
        "lng": 117.083975,
        "lat": 33.639568
    },
    {
        "name": "浙江外国语学院",
        "lng": 120.044481,
        "lat": 30.225725
    },
    {
        "name": "青海民族大学",
        "lng": 101.834336,
        "lat": 36.594652
    },
    {
        "name": "天津仁爱学院",
        "lng": 117.163406,
        "lat": 38.891238
    },
    {
        "name": "上海交通大学医学院",
        "lng": 121.476946,
        "lat": 31.218258
    },
    {
        "name": "山东石油化工学院",
        "lng": 118.549306,
        "lat": 37.477502
    },
    {
        "name": "北京农学院",
        "lng": 116.317085,
        "lat": 40.100942
    },
    {
        "name": "青岛滨海学院",
        "lng": 120.169851,
        "lat": 35.989168
    },
    {
        "name": "唐山学院",
        "lng": 118.173299,
        "lat": 39.683935
    },
    {
        "name": "大庆师范学院",
        "lng": 124.868949,
        "lat": 46.646772
    },
    {
        "name": "辽东学院",
        "lng": 124.370549,
        "lat": 40.183559
    },
    {
        "name": "广州民航职业技术学院",
        "lng": 113.263915,
        "lat": 23.171388
    },
    {
        "name": "北京工商大学嘉华学院",
        "lng": 116.738704,
        "lat": 39.941772
    },
    {
        "name": "山东青年政治学院",
        "lng": 117.246085,
        "lat": 36.678549
    },
    {
        "name": "广东交通职业技术学院",
        "lng": 113.359655,
        "lat": 23.189003
    },
    {
        "name": "内蒙古化工职业学院",
        "lng": 111.858743,
        "lat": 40.913189
    },
    {
        "name": "苏州市职业大学",
        "lng": 120.603437,
        "lat": 31.229725
    },
    {
        "name": "山东管理学院",
        "lng": 116.791446,
        "lat": 36.536228
    },
    {
        "name": "大连东软信息学院",
        "lng": 121.543102,
        "lat": 38.899271
    },
    {
        "name": "南京工业大学浦江学院",
        "lng": 118.908807,
        "lat": 31.642607
    },
    {
        "name": "西安明德理工学院",
        "lng": 108.792002,
        "lat": 34.051373
    },
    {
        "name": "南京铁道职业技术学院",
        "lng": 118.705716,
        "lat": 32.107955
    },
    {
        "name": "长春科技学院",
        "lng": 125.67395,
        "lat": 43.541262
    },
    {
        "name": "海军工程大学",
        "lng": 114.397046,
        "lat": 30.508165
    },
    {
        "name": "玉溪师范学院",
        "lng": 102.570076,
        "lat": 24.345234
    },
    {
        "name": "沈阳工学院",
        "lng": 123.724149,
        "lat": 41.849336
    },
    {
        "name": "琼台师范学院",
        "lng": 110.523217,
        "lat": 19.980723
    },
    {
        "name": "皖西学院",
        "lng": 116.494271,
        "lat": 31.766015
    },
    {
        "name": "河南医学高等专科学校",
        "lng": 113.713892,
        "lat": 34.620649
    },
    {
        "name": "兰州城市学院",
        "lng": 103.701172,
        "lat": 36.100702
    },
    {
        "name": "盐城工学院",
        "lng": 120.205308,
        "lat": 33.388024
    },
    {
        "name": "四川传媒学院",
        "lng": 103.991601,
        "lat": 30.829425
    },
    {
        "name": "甘肃政法大学",
        "lng": 103.736992,
        "lat": 36.110232
    },
    {
        "name": "广州华商学院",
        "lng": 113.575414,
        "lat": 23.309277
    },
    {
        "name": "通化师范学院",
        "lng": 125.994828,
        "lat": 41.752808
    },
    {
        "name": "石家庄铁路职业技术学院",
        "lng": 114.533558,
        "lat": 38.093999
    },
    {
        "name": "右江民族医学院",
        "lng": 106.621008,
        "lat": 23.896116
    },
    {
        "name": "吉林医药学院",
        "lng": 126.570631,
        "lat": 43.809746
    },
    {
        "name": "昆明医科大学海源学院",
        "lng": 102.669661,
        "lat": 25.075507
    },
    {
        "name": "广州软件学院",
        "lng": 113.399233,
        "lat": 23.077859
    },
    {
        "name": "重庆工程学院",
        "lng": 106.602487,
        "lat": 29.429754
    },
    {
        "name": "天津医科大学临床医学院",
        "lng": 117.469996,
        "lat": 38.873134
    },
    {
        "name": "无锡职业技术学院",
        "lng": 120.278627,
        "lat": 31.502251
    },
    {
        "name": "河北中医学院",
        "lng": 114.35294,
        "lat": 38.062992
    },
    {
        "name": "牡丹江医学院",
        "lng": 129.587118,
        "lat": 44.610399
    },
    {
        "name": "南京艺术学院",
        "lng": 118.76003,
        "lat": 32.068545
    },
    {
        "name": "长春建筑学院",
        "lng": 125.530749,
        "lat": 43.703589
    },
    {
        "name": "贵州理工学院",
        "lng": 106.664628,
        "lat": 26.567029
    },
    {
        "name": "桂林航天工业学院",
        "lng": 110.377843,
        "lat": 25.288572
    },
    {
        "name": "四川外国语大学成都学院",
        "lng": 103.584278,
        "lat": 30.83492
    },
    {
        "name": "新余学院",
        "lng": 115.002353,
        "lat": 27.863694
    },
    {
        "name": "青海师范大学",
        "lng": 101.755971,
        "lat": 36.749079
    },
    {
        "name": "大连科技学院",
        "lng": 121.161769,
        "lat": 38.788033
    },
    {
        "name": "武汉晴川学院",
        "lng": 114.545673,
        "lat": 30.396584
    },
    {
        "name": "福州大学至诚学院",
        "lng": 119.278164,
        "lat": 26.081206
    },
    {
        "name": "同济大学浙江学院",
        "lng": 120.791973,
        "lat": 30.740149
    },
    {
        "name": "无锡学院",
        "lng": 120.476485,
        "lat": 31.587384
    },
    {
        "name": "天水师范学院",
        "lng": 105.705485,
        "lat": 34.576057
    },
    {
        "name": "淮阴工学院",
        "lng": 119.042349,
        "lat": 33.559087
    },
    {
        "name": "郑州铁路职业技术学院",
        "lng": 113.893532,
        "lat": 34.801967
    },
    {
        "name": "汉江师范学院",
        "lng": 110.796089,
        "lat": 32.622628
    },
    {
        "name": "辽宁理工学院",
        "lng": 121.071712,
        "lat": 40.901156
    },
    {
        "name": "郑州科技学院",
        "lng": 113.515819,
        "lat": 34.714555
    },
    {
        "name": "河池学院",
        "lng": 108.674115,
        "lat": 24.504078
    },
    {
        "name": "陆军工程大学",
        "lng": 118.823764,
        "lat": 32.035606
    },
    {
        "name": "上海师范大学天华学院",
        "lng": 121.207386,
        "lat": 31.415127
    },
    {
        "name": "天津天狮学院",
        "lng": 117.045349,
        "lat": 39.433261
    },
    {
        "name": "黄山学院",
        "lng": 118.300557,
        "lat": 29.698243
    },
    {
        "name": "重庆三峡医药高等专科学校",
        "lng": 108.452346,
        "lat": 30.758725
    },
    {
        "name": "成都体育学院",
        "lng": 104.049992,
        "lat": 30.652713
    },
    {
        "name": "凯里学院",
        "lng": 107.898748,
        "lat": 26.530582
    },
    {
        "name": "龙岩学院",
        "lng": 117.029619,
        "lat": 25.035874
    },
    {
        "name": "西安交通大学城市学院",
        "lng": 108.865815,
        "lat": 34.375845
    },
    {
        "name": "合肥师范学院",
        "lng": 117.234981,
        "lat": 31.7569
    },
    {
        "name": "湖北工业大学工程技术学院",
        "lng": 114.313982,
        "lat": 30.484024
    },
    {
        "name": "信阳学院",
        "lng": 114.043999,
        "lat": 32.149386
    },
    {
        "name": "铁道警察学院",
        "lng": 113.657857,
        "lat": 34.795338
    },
    {
        "name": "扬州大学广陵学院",
        "lng": 119.411037,
        "lat": 32.314966
    },
    {
        "name": "燕山大学里仁学院",
        "lng": 119.533446,
        "lat": 39.912483
    },
    {
        "name": "广州商学院",
        "lng": 113.575414,
        "lat": 23.309277
    },
    {
        "name": "南京师范大学中北学院",
        "lng": 119.547851,
        "lat": 32.02053
    },
    {
        "name": "湖北商贸学院",
        "lng": 114.383431,
        "lat": 30.506814
    },
    {
        "name": "菏泽医学专科学校",
        "lng": 115.482637,
        "lat": 35.276906
    },
    {
        "name": "陕西学前师范学院",
        "lng": 108.940875,
        "lat": 34.135166
    },
    {
        "name": "湖南大众传媒职业技术学院",
        "lng": 113.083601,
        "lat": 28.262846
    },
    {
        "name": "郑州升达经贸管理学院",
        "lng": 113.697218,
        "lat": 34.598192
    },
    {
        "name": "烟台科技学院",
        "lng": 120.713916,
        "lat": 37.817582
    },
    {
        "name": "榆林学院",
        "lng": 109.728096,
        "lat": 38.29937
    },
    {
        "name": "仰恩大学",
        "lng": 118.615137,
        "lat": 25.115691
    },
    {
        "name": "天津中德应用技术大学",
        "lng": 117.392755,
        "lat": 39.01727
    },
    {
        "name": "上海民航职业技术学院",
        "lng": 121.462475,
        "lat": 31.177613
    },
    {
        "name": "萍乡学院",
        "lng": 113.887091,
        "lat": 27.635124
    },
    {
        "name": "福建江夏学院",
        "lng": 119.199711,
        "lat": 26.071293
    },
    {
        "name": "吉林农业科技学院",
        "lng": 126.485394,
        "lat": 43.963825
    },
    {
        "name": "宁夏医科大学",
        "lng": 106.285195,
        "lat": 38.41916
    },
    {
        "name": "滁州学院",
        "lng": 118.320321,
        "lat": 32.282388
    },
    {
        "name": "石家庄铁道大学四方学院",
        "lng": 114.412919,
        "lat": 37.889637
    },
    {
        "name": "山东财经大学东方学院",
        "lng": 117.090685,
        "lat": 36.129447
    },
    {
        "name": "长春人文学院",
        "lng": 125.416371,
        "lat": 43.82893
    },
    {
        "name": "香港中文大学",
        "lng": 114.219305,
        "lat": 22.694207
    },
    {
        "name": "黑河学院",
        "lng": 127.549456,
        "lat": 50.233636
    },
    {
        "name": "山西工学院",
        "lng": 112.453421,
        "lat": 39.380884
    },
    {
        "name": "晋中学院",
        "lng": 112.727671,
        "lat": 37.746726
    },
    {
        "name": "上海戏剧学院",
        "lng": 121.446441,
        "lat": 31.223535
    },
    {
        "name": "苏州卫生职业技术学院",
        "lng": 120.591798,
        "lat": 31.267099
    },
    {
        "name": "黑龙江外国语学院",
        "lng": 126.558567,
        "lat": 45.86402
    },
    {
        "name": "昆明文理学院",
        "lng": 103.003843,
        "lat": 25.25201
    },
    {
        "name": "上海财经大学浙江学院",
        "lng": 119.703166,
        "lat": 29.085266
    },
    {
        "name": "广东外语外贸大学南国商学院",
        "lng": 113.390352,
        "lat": 23.344847
    },
    {
        "name": "河西学院",
        "lng": 100.447348,
        "lat": 38.95486
    },
    {
        "name": "四川邮电职业技术学院",
        "lng": 104.130718,
        "lat": 30.625423
    },
    {
        "name": "长沙师范学院",
        "lng": 113.090104,
        "lat": 28.262152
    },
    {
        "name": "郑州商学院",
        "lng": 113.035692,
        "lat": 34.767113
    },
    {
        "name": "河北传媒学院",
        "lng": 114.670816,
        "lat": 37.912529
    },
    {
        "name": "广州应用科技学院",
        "lng": 113.732861,
        "lat": 23.283214
    },
    {
        "name": "河北师范大学汇华学院",
        "lng": 114.470428,
        "lat": 38.012563
    },
    {
        "name": "南京师范大学泰州学院",
        "lng": 119.947157,
        "lat": 32.481818
    },
    {
        "name": "东南大学成贤学院",
        "lng": 118.710086,
        "lat": 32.159854
    },
    {
        "name": "吉林外国语大学",
        "lng": 125.451969,
        "lat": 43.828053
    },
    {
        "name": "河北经贸大学经济管理学院",
        "lng": 114.464129,
        "lat": 38.012633
    },
    {
        "name": "南昌交通学院",
        "lng": 115.838157,
        "lat": 28.711271
    },
    {
        "name": "长治学院",
        "lng": 113.143332,
        "lat": 36.216985
    },
    {
        "name": "延安大学西安创新学院",
        "lng": 108.943357,
        "lat": 34.157534
    },
    {
        "name": "无锡太湖学院",
        "lng": 120.233834,
        "lat": 31.5811
    },
    {
        "name": "湖北经济学院法商学院",
        "lng": 114.442721,
        "lat": 30.42425
    },
    {
        "name": "南京大学金陵学院",
        "lng": 118.711574,
        "lat": 32.183466
    },
    {
        "name": "河北工程大学科信学院",
        "lng": 114.515134,
        "lat": 36.577829
    },
    {
        "name": "沈阳城市建设学院",
        "lng": 123.424565,
        "lat": 41.681885
    },
    {
        "name": "陆军军医大学",
        "lng": 106.458054,
        "lat": 29.543075
    },
    {
        "name": "张家口学院",
        "lng": 114.875113,
        "lat": 40.849
    },
    {
        "name": "广东培正学院",
        "lng": 113.096764,
        "lat": 23.415483
    },
    {
        "name": "绥化学院",
        "lng": 126.984308,
        "lat": 46.630247
    },
    {
        "name": "山东交通职业学院",
        "lng": 119.183757,
        "lat": 36.676379
    },
    {
        "name": "浙江水利水电学院",
        "lng": 120.379813,
        "lat": 30.32051
    },
    {
        "name": "四川建筑职业技术学院",
        "lng": 104.389585,
        "lat": 31.091431
    },
    {
        "name": "湛江科技学院",
        "lng": 110.250731,
        "lat": 21.170642
    },
    {
        "name": "大连职业技术学院",
        "lng": 121.496529,
        "lat": 39.027603
    },
    {
        "name": "四川护理职业学院",
        "lng": 104.27043,
        "lat": 30.57581
    },
    {
        "name": "阿坝师范学院",
        "lng": 103.423101,
        "lat": 30.930176
    },
    {
        "name": "山东警察学院",
        "lng": 117.534691,
        "lat": 36.657448
    },
    {
        "name": "长春工业大学人文信息学院",
        "lng": 125.434653,
        "lat": 43.787606
    },
    {
        "name": "山东中医药高等专科学校",
        "lng": 121.640234,
        "lat": 37.444956
    },
    {
        "name": "内蒙古科技大学包头医学院",
        "lng": 109.988841,
        "lat": 40.614715
    },
    {
        "name": "武汉交通职业学院",
        "lng": 114.272959,
        "lat": 30.433809
    },
    {
        "name": "西南交通大学希望学院",
        "lng": 104.470841,
        "lat": 30.857999
    },
    {
        "name": "南京财经大学红山学院",
        "lng": 119.239203,
        "lat": 32.170171
    },
    {
        "name": "广州铁路职业技术学院",
        "lng": 113.214815,
        "lat": 23.206672
    },
    {
        "name": "宁波财经学院",
        "lng": 121.488521,
        "lat": 29.892875
    },
    {
        "name": "广州美术学院",
        "lng": 113.389007,
        "lat": 23.044584
    },
    {
        "name": "皖江工学院",
        "lng": 118.555108,
        "lat": 31.668084
    },
    {
        "name": "吉林建筑科技学院",
        "lng": 125.157355,
        "lat": 43.999576
    },
    {
        "name": "巢湖学院",
        "lng": 117.936406,
        "lat": 31.655637
    },
    {
        "name": "苏州城市学院",
        "lng": 120.589951,
        "lat": 31.224387
    },
    {
        "name": "济南职业学院",
        "lng": 117.267088,
        "lat": 36.639758
    },
    {
        "name": "河北工程技术学院",
        "lng": 114.47525,
        "lat": 37.990448
    },
    {
        "name": "广东理工学院",
        "lng": 112.491224,
        "lat": 23.011914
    },
    {
        "name": "大连艺术学院",
        "lng": 121.840646,
        "lat": 39.104574
    },
    {
        "name": "黄河交通学院",
        "lng": 113.438537,
        "lat": 35.094585
    },
    {
        "name": "南阳医学高等专科学校",
        "lng": 112.502397,
        "lat": 32.975113
    },
    {
        "name": "重庆财经职业学院",
        "lng": 105.895729,
        "lat": 29.37375
    },
    {
        "name": "成都纺织高等专科学校",
        "lng": 103.962651,
        "lat": 30.763164
    },
    {
        "name": "西安航空职业技术学院",
        "lng": 109.252089,
        "lat": 34.661465
    },
    {
        "name": "黔南民族师范学院",
        "lng": 107.523855,
        "lat": 26.299625
    },
    {
        "name": "九江职业技术学院",
        "lng": 115.995784,
        "lat": 29.68634
    },
    {
        "name": "广东轻工职业技术学院",
        "lng": 113.311597,
        "lat": 23.098327
    },
    {
        "name": "贵州商学院",
        "lng": 106.635295,
        "lat": 26.732227
    },
    {
        "name": "四川文化艺术学院",
        "lng": 104.766691,
        "lat": 31.427396
    },
    {
        "name": "湘中幼儿师范高等专科学校",
        "lng": 111.424799,
        "lat": 27.166066
    },
    {
        "name": "长江大学文理学院",
        "lng": 112.193069,
        "lat": 30.355534
    },
    {
        "name": "河北外国语学院",
        "lng": 114.461715,
        "lat": 38.000936
    },
    {
        "name": "四川工业科技学院",
        "lng": 104.503643,
        "lat": 31.326805
    },
    {
        "name": "西安工商学院",
        "lng": 109.1138,
        "lat": 34.534573
    },
    {
        "name": "赣南科技学院",
        "lng": 114.924396,
        "lat": 25.843912
    },
    {
        "name": "商洛学院",
        "lng": 109.963058,
        "lat": 33.870036
    },
    {
        "name": "吉林工程技术师范学院",
        "lng": 125.326859,
        "lat": 43.94523
    },
    {
        "name": "广州番禺职业技术学院",
        "lng": 113.313451,
        "lat": 22.909052
    },
    {
        "name": "山东科技职业学院",
        "lng": 119.030401,
        "lat": 36.669209
    },
    {
        "name": "武汉工程大学邮电与信息工程学院",
        "lng": 114.396354,
        "lat": 30.510754
    },
    {
        "name": "深圳技术大学",
        "lng": 114.40636,
        "lat": 22.708257
    },
    {
        "name": "沧州师范学院",
        "lng": 116.790243,
        "lat": 38.291282
    },
    {
        "name": "上海震旦职业学院",
        "lng": 121.362517,
        "lat": 31.425121
    },
    {
        "name": "青岛酒店管理职业技术学院",
        "lng": 120.496077,
        "lat": 36.175255
    },
    {
        "name": "江苏师范大学科文学院",
        "lng": 117.379883,
        "lat": 34.353685
    },
    {
        "name": "四川音乐学院",
        "lng": 104.085456,
        "lat": 30.643663
    },
    {
        "name": "赤峰学院",
        "lng": 118.923828,
        "lat": 42.248151
    },
    {
        "name": "泰州学院",
        "lng": 119.947157,
        "lat": 32.481818
    },
    {
        "name": "哈尔滨铁道职业技术学院",
        "lng": 126.644899,
        "lat": 45.584297
    },
    {
        "name": "呼伦贝尔学院",
        "lng": 119.785543,
        "lat": 49.206952
    },
    {
        "name": "重庆工商大学派斯学院",
        "lng": 106.269463,
        "lat": 30.011144
    },
    {
        "name": "河北科技学院",
        "lng": 115.499229,
        "lat": 38.819906
    },
    {
        "name": "云南经济管理学院",
        "lng": 102.655803,
        "lat": 25.092157
    },
    {
        "name": "河北石油职业技术大学",
        "lng": 117.969185,
        "lat": 40.904239
    },
    {
        "name": "河北地质大学华信学院",
        "lng": 114.778222,
        "lat": 38.337794
    },
    {
        "name": "豫章师范学院",
        "lng": 115.78278,
        "lat": 28.671281
    },
    {
        "name": "大连医科大学中山学院",
        "lng": 121.519435,
        "lat": 38.859516
    },
    {
        "name": "吕梁学院",
        "lng": 111.154173,
        "lat": 37.588502
    },
    {
        "name": "湘潭大学兴湘学院",
        "lng": 112.868082,
        "lat": 27.884076
    },
    {
        "name": "红河学院",
        "lng": 103.429813,
        "lat": 23.356148
    },
    {
        "name": "黑龙江职业学院",
        "lng": 126.615495,
        "lat": 45.722415
    },
    {
        "name": "焦作师范高等专科学校",
        "lng": 113.279982,
        "lat": 35.219053
    },
    {
        "name": "潍坊理工学院",
        "lng": 118.496832,
        "lat": 36.62822
    },
    {
        "name": "长沙民政职业技术学院",
        "lng": 113.019503,
        "lat": 28.146656
    },
    {
        "name": "安徽职业技术学院",
        "lng": 117.386038,
        "lat": 31.934639
    },
    {
        "name": "重庆建筑工程职业学院",
        "lng": 106.671353,
        "lat": 29.55637
    },
    {
        "name": "湖北警官学院",
        "lng": 114.213742,
        "lat": 30.607454
    },
    {
        "name": "四川职业技术学院",
        "lng": 105.61205,
        "lat": 30.539752
    },
    {
        "name": "深圳北理莫斯科大学",
        "lng": 114.212304,
        "lat": 22.685235
    },
    {
        "name": "晋中信息学院",
        "lng": 112.579356,
        "lat": 37.457115
    },
    {
        "name": "上海科技大学",
        "lng": 121.601394,
        "lat": 31.182971
    },
    {
        "name": "广东科技学院",
        "lng": 113.762141,
        "lat": 22.978418
    },
    {
        "name": "文山学院",
        "lng": 104.255491,
        "lat": 23.361324
    },
    {
        "name": "伊犁师范大学",
        "lng": 81.311817,
        "lat": 43.943063
    },
    {
        "name": "西安铁路职业技术学院",
        "lng": 109.07442,
        "lat": 34.392795
    },
    {
        "name": "安康学院",
        "lng": 108.989409,
        "lat": 32.702954
    },
    {
        "name": "烟台南山学院",
        "lng": 120.448498,
        "lat": 37.727786
    },
    {
        "name": "河北水利电力学院",
        "lng": 116.811572,
        "lat": 38.301061
    },
    {
        "name": "湖北师范大学文理学院",
        "lng": 115.122389,
        "lat": 30.159424
    },
    {
        "name": "重庆外语外事学院",
        "lng": 106.614282,
        "lat": 29.670271
    },
    {
        "name": "贵阳职业技术学院",
        "lng": 106.609819,
        "lat": 26.625062
    },
    {
        "name": "天津体育学院",
        "lng": 117.066181,
        "lat": 38.958815
    },
    {
        "name": "河南财政金融学院",
        "lng": 113.814659,
        "lat": 34.811091
    },
    {
        "name": "忻州师范学院",
        "lng": 112.733864,
        "lat": 38.437163
    },
    {
        "name": "深圳信息职业技术学院",
        "lng": 114.223244,
        "lat": 22.690658
    },
    {
        "name": "内蒙古科技大学包头师范学院",
        "lng": 109.892403,
        "lat": 40.661663
    },
    {
        "name": "安顺学院",
        "lng": 105.907595,
        "lat": 26.249521
    },
    {
        "name": "山西传媒学院",
        "lng": 112.738142,
        "lat": 37.747287
    },
    {
        "name": "泰山科技学院",
        "lng": 117.289707,
        "lat": 36.248227
    },
    {
        "name": "顺德职业技术学院",
        "lng": 113.330979,
        "lat": 22.815475
    },
    {
        "name": "安徽医学高等专科学校",
        "lng": 117.233068,
        "lat": 31.793678
    },
    {
        "name": "澳门大学",
        "lng": 113.550233,
        "lat": 22.133774
    },
    {
        "name": "四川旅游学院",
        "lng": 104.285414,
        "lat": 30.586842
    },
    {
        "name": "昌吉学院",
        "lng": 87.260561,
        "lat": 44.024988
    },
    {
        "name": "遵义医药高等专科学校",
        "lng": 107.081349,
        "lat": 27.732843
    },
    {
        "name": "广东东软学院",
        "lng": 113.030647,
        "lat": 23.143497
    },
    {
        "name": "聊城大学东昌学院",
        "lng": 116.065041,
        "lat": 36.509612
    },
    {
        "name": "黑龙江财经学院",
        "lng": 126.498628,
        "lat": 45.884212
    },
    {
        "name": "河南牧业经济学院",
        "lng": 113.648213,
        "lat": 34.868122
    },
    {
        "name": "贵州黔南科技学院",
        "lng": 106.662204,
        "lat": 26.152663
    },
    {
        "name": "中南林业科技大学涉外学院",
        "lng": 112.917244,
        "lat": 28.364756
    },
    {
        "name": "曲靖师范学院",
        "lng": 103.757557,
        "lat": 25.528116
    },
    {
        "name": "西藏民族大学",
        "lng": 108.739198,
        "lat": 34.355944
    },
    {
        "name": "陕西警官职业学院",
        "lng": 109.013629,
        "lat": 34.412974
    },
    {
        "name": "中国计量大学现代科技学院",
        "lng": 120.023396,
        "lat": 29.229046
    },
    {
        "name": "中国科学院大学",
        "lng": 116.342539,
        "lat": 39.916069
    },
    {
        "name": "天津医学高等专科学校",
        "lng": 117.294134,
        "lat": 39.079677
    },
    {
        "name": "江苏大学京江学院",
        "lng": 119.360436,
        "lat": 32.119566
    },
    {
        "name": "长春电子科技学院",
        "lng": 125.158243,
        "lat": 44.00766
    },
    {
        "name": "上海音乐学院",
        "lng": 121.461105,
        "lat": 31.220091
    },
    {
        "name": "火箭军工程大学",
        "lng": 109.134725,
        "lat": 34.32335
    },
    {
        "name": "解放军国际关系学院",
        "lng": 118.661212,
        "lat": 31.928553
    },
    {
        "name": "河北科技工程职业技术大学",
        "lng": 114.467266,
        "lat": 37.090367
    },
    {
        "name": "长沙理工大学城南学院",
        "lng": 112.983005,
        "lat": 28.158435
    },
    {
        "name": "辽宁财贸学院",
        "lng": 120.801877,
        "lat": 40.627492
    },
    {
        "name": "新疆工程学院",
        "lng": 87.41686,
        "lat": 43.849144
    },
    {
        "name": "绵阳职业技术学院",
        "lng": 104.794585,
        "lat": 31.496395
    },
    {
        "name": "北京工业大学耿丹学院",
        "lng": 116.658646,
        "lat": 40.221871
    },
    {
        "name": "浙江越秀外国语学院",
        "lng": 120.608833,
        "lat": 29.975043
    },
    {
        "name": "武汉软件工程职业学院",
        "lng": 114.433626,
        "lat": 30.450796
    },
    {
        "name": "苏州农业职业技术学院",
        "lng": 120.588194,
        "lat": 31.320135
    },
    {
        "name": "华南农业大学珠江学院",
        "lng": 113.587688,
        "lat": 23.517956
    },
    {
        "name": "滨州职业学院",
        "lng": 118.005347,
        "lat": 37.424383
    },
    {
        "name": "山东水利职业学院",
        "lng": 119.558246,
        "lat": 35.46152
    },
    {
        "name": "闽南理工学院",
        "lng": 118.674513,
        "lat": 24.721522
    },
    {
        "name": "武汉纺织大学外经贸学院",
        "lng": 114.423289,
        "lat": 30.390607
    },
    {
        "name": "山东理工职业学院",
        "lng": 116.582395,
        "lat": 35.361856
    },
    {
        "name": "信阳农林学院",
        "lng": 114.131263,
        "lat": 32.167527
    },
    {
        "name": "芜湖职业技术学院",
        "lng": 118.375997,
        "lat": 31.282727
    },
    {
        "name": "武汉设计工程学院",
        "lng": 114.416036,
        "lat": 30.408481
    },
    {
        "name": "宁波大学科学技术学院",
        "lng": 121.618891,
        "lat": 29.92065
    },
    {
        "name": "郑州旅游职业学院",
        "lng": 113.904394,
        "lat": 34.810228
    },
    {
        "name": "陕西科技大学镐京学院",
        "lng": 108.731139,
        "lat": 34.309712
    },
    {
        "name": "陇东学院",
        "lng": 107.690891,
        "lat": 35.735667
    },
    {
        "name": "广东职业技术学院",
        "lng": 112.83003,
        "lat": 23.005638
    },
    {
        "name": "安徽三联学院",
        "lng": 117.208324,
        "lat": 31.760661
    },
    {
        "name": "柳州工学院",
        "lng": 109.537323,
        "lat": 24.373336
    },
    {
        "name": "贺州学院",
        "lng": 111.519692,
        "lat": 24.416049
    },
    {
        "name": "北京第二外国语学院中瑞酒店管理学院",
        "lng": 116.313498,
        "lat": 39.625107
    },
    {
        "name": "青岛农业大学海都学院",
        "lng": 120.730793,
        "lat": 36.992551
    },
    {
        "name": "山东英才学院",
        "lng": 117.328405,
        "lat": 36.69366
    },
    {
        "name": "长春光华学院",
        "lng": 125.447877,
        "lat": 43.8819
    },
    {
        "name": "天津师范大学津沽学院",
        "lng": 117.13068,
        "lat": 39.061631
    },
    {
        "name": "普洱学院",
        "lng": 101.005894,
        "lat": 22.774454
    },
    {
        "name": "陕西职业技术学院",
        "lng": 109.104347,
        "lat": 34.220682
    },
    {
        "name": "昆明冶金高等专科学校",
        "lng": 102.695529,
        "lat": 25.07139
    },
    {
        "name": "沈阳城市学院",
        "lng": 123.543166,
        "lat": 41.630896
    },
    {
        "name": "北京信息职业技术学院",
        "lng": 116.489231,
        "lat": 39.978853
    },
    {
        "name": "商丘工学院",
        "lng": 115.692691,
        "lat": 34.424781
    },
    {
        "name": "青岛职业技术学院",
        "lng": 120.167747,
        "lat": 35.976472
    },
    {
        "name": "聊城职业技术学院",
        "lng": 116.008946,
        "lat": 36.490738
    },
    {
        "name": "潍坊科技学院",
        "lng": 118.781755,
        "lat": 36.890667
    },
    {
        "name": "空军预警学院",
        "lng": 114.303263,
        "lat": 30.625329
    },
    {
        "name": "中国社会科学院大学",
        "lng": 116.186757,
        "lat": 39.745945
    },
    {
        "name": "石家庄邮电职业技术学院",
        "lng": 114.537472,
        "lat": 38.024451
    },
    {
        "name": "天津外国语大学滨海外事学院",
        "lng": 117.474486,
        "lat": 38.868116
    },
    {
        "name": "香港中文大学（深圳）",
        "lng": 114.219305,
        "lat": 22.694207
    },
    {
        "name": "山东畜牧兽医职业学院",
        "lng": 119.177082,
        "lat": 36.714921
    },
    {
        "name": "天津理工大学中环信息学院",
        "lng": 117.025937,
        "lat": 39.133121
    },
    {
        "name": "河北美术学院",
        "lng": 114.72321,
        "lat": 38.35128
    },
    {
        "name": "太原学院",
        "lng": 112.613751,
        "lat": 37.699497
    },
    {
        "name": "青岛黄海学院",
        "lng": 120.1183,
        "lat": 35.930145
    },
    {
        "name": "武汉传媒学院",
        "lng": 114.426333,
        "lat": 30.444446
    },
    {
        "name": "景德镇学院",
        "lng": 117.25015,
        "lat": 29.383564
    },
    {
        "name": "安徽警官职业学院",
        "lng": 117.230508,
        "lat": 31.882579
    },
    {
        "name": "吉首大学张家界学院",
        "lng": 110.457713,
        "lat": 29.157558
    },
    {
        "name": "河北农业大学现代科技学院",
        "lng": 115.456429,
        "lat": 38.834621
    },
    {
        "name": "郑州电力高等专科学校",
        "lng": 113.904446,
        "lat": 34.804218
    },
    {
        "name": "池州学院",
        "lng": 117.574281,
        "lat": 30.649346
    },
    {
        "name": "黎明职业大学",
        "lng": 118.633292,
        "lat": 24.885041
    },
    {
        "name": "中央戏剧学院",
        "lng": 116.382337,
        "lat": 40.110602
    },
    {
        "name": "辽宁中医药大学杏林学院",
        "lng": 123.420796,
        "lat": 41.685627
    },
    {
        "name": "亳州学院",
        "lng": 115.775232,
        "lat": 33.808464
    },
    {
        "name": "安徽中医药高等专科学校",
        "lng": 118.382954,
        "lat": 31.305968
    },